[
{
     "name" : "Pedisong 1 clinic", "latitude" : -25.615760, "longitude" : 27.988290 },
    { "name" : "Sosh Block X Clinic", "latitude" : -25.490810, "longitude" : 28.094250 },
    { "name" : "Soshanguve Clinic", "latitude" : -25.490810, "longitude" : 28.094250 },
    { "name" : "Karenpark Clinic", "latitude" : -25.665592, "longitude" : 28.106620 },
    { "name" : "Rosslyn Clinic", "latitude" : -25.626010, "longitude" : 28.096010 },
    { "name" : "Blok JJ Clinic", "latitude" : -25.457390, "longitude" : 28.083630 },
    { "name" : "Kekana Gardens Clinic", "latitude" : -25.373780, "longitude" : 28.310396 },
    { "name" : "Ramotse Clinic", "latitude" : -25.357540, "longitude" : 28.295320 },
    { "name" : "Hercules Clinic", "latitude" : -25.711817, "longitude" : 28.148117 },
    { "name" : "Silverton Clinic", "latitude" : -25.733380, "longitude" : 28 },
    { "name" : "Folang Clinic", "latitude" : -25.749940, "longitude" : 28.173620 },
    { "name" : "Doornpoort Clinic", "latitude" : -25.654020, "longitude" : 28.252770 },
    { "name" : "Pierre Van Ryneveld Clinic", "latitude" : -25.843017, "longitude" : 28.243283 },
    { "name" : "F.F. Ribeiro Clinic", "latitude" : -25.745350, "longitude" : 28.195350 },
    { "name" : "Saulsville Clinic", "latitude" : -25.779099, "longitude" : 28.067273 },
    { "name" : "Atteridgeville Clinic", "latitude" : -25.773453, "longitude" : 28.071270 },
    { "name" : "Unjani Clinic", "latitude" : -25.767280, "longitude" : 28.075620 },
    { "name" : "Olievenhoutbosch Clinic", "latitude" : -25.911360, "longitude" : 28.093660 },
    { "name" : "Laudium Clinic", "latitude" : -25.788065, "longitude" : 28.106558 },{ "name" : "Lyttelton Clinic", "latitude" : -25.835990, "longitude" : 28.196000 },{ "name" : "Eldoraigne Clinic", "latitude" : -25.836360, "longitude" : 28.149310 },{ "name" : "p2p Rooihuiskraal Clinic", "latitude" : -25.893233, "longitude" : 28.152783 },{ "name" : "Tshepong Community Centre", "latitude" : -25.641790, "longitude" : 28.529490 },{ "name" : "Refilwe Community Centre", "latitude" : -25.636990, "longitude" : 28.530530 },{ "name" : "Mamelodi West Clinic", "latitude" : -25.714260, "longitude" : 28.348640 },{ "name" : "Nelmapius Clinic", "latitude" : -25.736720, "longitude" : 28.350310 },{ "name" : "Eersterust Clinic", "latitude" : -25.708230, "longitude" : 28.319250 },{ "name" : "Mamelodi Hospital", "latitude" : -25.719880, "longitude" : 28.369480 },{ "name" : "Ubuntu Clinic", "latitude" : -25.756840, "longitude" : 28.426580 },{ "name" : "Mamelodi Clinic", "latitude" : -25.704560, "longitude" : 28.375880 },{ "name" : "Stanza Ii Bopape Clinic", "latitude" : -25.714380, "longitude" : 28.415980 },{ "name" : "Phahameng Clinic", "latitude" : -25.721700, "longitude" : 28.387183 },{ "name" : "Dark City Clinic", "latitude" : -25.659410, "longitude" : 28.731870 },{ "name" : "Sokhulumi clinic", "latitude" : -25.601970, "longitude" : 28.888610 },{ "name" : "Mabopane Block A Customer Care Centre", "latitude" : -25.502220, "longitude" : 28.062650 },{ "name" : "Mabopane Block X Customer Care Centre", "latitude" : -25.513833, "longitude" : 28.047111 },{ "name" : "Beirut Customer Care Centre", "latitude" : -25.492780, "longitude" : 28.059840 },{ "name" : "Winterveldt Customer Care Centre", "latitude" : -25.471239, "longitude" : 28.058414 },{ "name" : "Ga-Rankuwa Customer Care Centre", "latitude" : -25.594650, "longitude" : 27.999967 },{ "name" : "Soshanguve Block F Customer Care Centre", "latitude" : -25.519700, "longitude" : 28.100700 },{ "name" : "Akasia Customer Care Centre", "latitude" : -25.667040, "longitude" : 28.106800 },{ "name" : "Bodibeng Customer Care Centre", "latitude" : -25.493240, "longitude" : 28.093940 },{ "name" : "Sinoville Customer Care Centre", "latitude" : -25.674102, "longitude" : 28.214301 },{ "name" : "Hammanskraal Customer Care Centre", "latitude" : -25.403660, "longitude" : 28.288940 },{ "name" : "Temba Customer Care Centre", "latitude" : -25.385770, "longitude" : 28.255210 },{ "name" : "Laudium Custome Care Health Centre", "latitude" : -25.784190, "longitude" : 28.088670 },{ "name" : "Laudium Customer Care Centre", "latitude" : -25.787383, "longitude" : 28.106950 },{ "name" : "Olievenhoutbosch Customer Care Centre", "latitude" : -25.911027, "longitude" : 28.095293 },{ "name" : "Rayton Customer Care Centre", "latitude" : -25.739083, "longitude" : 28.529650 },{ "name" : "Rayton Municipal Key Site", "latitude" : -25.739217, "longitude" : 28.530150 },{ "name" : "Refilwe Municipal Key Site", "latitude" : -25.637270, "longitude" : 28.531060 },{ "name" : "Refilwe Customer Care Centre", "latitude" : -25.638950, "longitude" : 28.534290 },{ "name" : "Nelmapius Customer Care Centre", "latitude" : -25.741767, "longitude" : 28.358783 },{ "name" : "Stanza Bopape Customer Care Centre", "latitude" : -25.706360, "longitude" : 28.401080 },{ "name" : "Eersterust Customer Care Centre", "latitude" : -25.706933, "longitude" : 28.309283 },{ "name" : "Mamelodi Customer Care Centre", "latitude" : -25.716494, "longitude" : 28.337198 },{ "name" : "Grasdak Offices", "latitude" : -25.805320, "longitude" : 28.736870 },{ "name" : "Bronkhorstspruit Customer Care Centre", "latitude" : -25.807477, "longitude" : 28.755008 },{ "name" : "Capital Park Electrical Depot", "latitude" : -25.727380, "longitude" : 28.173440 },{ "name" : "Rosslyn Depot", "latitude" : -25.633450, "longitude" : 28.105133 },{ "name" : "Mabopane library", "latitude" : -25.513240, "longitude" : 28.054010 },{ "name" : "Halala Library", "latitude" : -25.520000, "longitude" : 28.110067 },{ "name" : "Winterveld Library", "latitude" : -25.471510, "longitude" : 28.058070 },{ "name" : "Akasia Library", "latitude" : -25.671830, "longitude" : 28.107640 },{ "name" : "Kt Motubatse Library", "latitude" : -25.584360, "longitude" : 28.089650 },{ "name" : "Bodibeng Bodibeng Library", "latitude" : -25.492880, "longitude" : 28.094580 },{ "name" : "Soshanguve Block X Library", "latitude" : -25.467900, "longitude" : 28.130690 },{ "name" : "Hammanskraal Library", "latitude" : -25.404020, "longitude" : 28.289010 },{ "name" : "Steve Biko Library", "latitude" : -25.378600, "longitude" : 28.308110 },{ "name" : "Suurman Library", "latitude" : -25.382160, "longitude" : 28.220880 },{ "name" : "Temba Library", "latitude" : -25.386430, "longitude" : 28.255820 },{ "name" : "Hercules Library", "latitude" : -25.714770, "longitude" : 28.146970 },{ "name" : "Mayville Library", "latitude" : -25.700050, "longitude" : 28.181640 },{ "name" : "Mountain View Library", "latitude" : -25.700917, "longitude" : 28.161083 },{ "name" : "Silverton Library", "latitude" : -25.733540, "longitude" : 28.297250 },{ "name" : "Danville Library", "latitude" : -25.743520, "longitude" : 28.126390 },{ "name" : "Pretoria North Library", "latitude" : -25.673630, "longitude" : 28.171060 },{ "name" : "Waverley Library", "latitude" : -25.703070, "longitude" : 28.258110 },{ "name" : "Pierre Van Ryneveld Library", "latitude" : -25.842700, "longitude" : 28.243267 },{ "name" : "Depot Library", "latitude" : -25.744450, "longitude" : 28.195250 },{ "name" : "Moot Library", "latitude" : -25.716610, "longitude" : 28.217090 },{ "name" : "Valhalla Library", "latitude" : -25.812560, "longitude" : 28.156880 },{ "name" : "Brooklyn Library Inside", "latitude" : -25.770430, "longitude" : 28.234040 },{ "name" : "Es'kia Mphahlele Library", "latitude" : -25.745250, "longitude" : 28.194660 },{ "name" : "Atteridgeville Library", "latitude" : -25.770483, "longitude" : 28.070417 },{ "name" : "Saulsville Library", "latitude" : -25.769670, "longitude" : 28.062880 },{ "name" : "Eldoraigne Library", "latitude" : -25.848317, "longitude" : 28.154017 },{ "name" : "Valhalla Library Inside (Fibre)", "latitude" : -25.841510, "longitude" : 28.148300 },{ "name" : "Lyttelton Library", "latitude" : -25.830083, "longitude" : 28.206096 },{ "name" : "Laudium Library", "latitude" : -25.787143, "longitude" : 28.100669 },{ "name" : "Erasmia Library", "latitude" : -25.815810, "longitude" : 28.091290 },{ "name" : "Irene Library", "latitude" : -25.875700, "longitude" : 28.222817 },{ "name" : "Rooihuiskraal Library", "latitude" : -25.893230, "longitude" : 28.152870 },{ "name" : "Olievenhoutbosch Library", "latitude" : -25.911250, "longitude" : 28.093390 },{ "name" : "Refilwe Library", "latitude" : -25.635960, "longitude" : 28.527270 },{ "name" : "East Lynne Library", "latitude" : -25.705560, "longitude" : 28.284400 },{ "name" : "Cullinan Library", "latitude" : -25.675150, "longitude" : 28.521390 },{ "name" : "Abram Makolane Library", "latitude" : -25.738980, "longitude" : 28.362400 },{ "name" : "Eersterust Library", "latitude" : -25.706920, "longitude" : 28.309690 },{ "name" : "Mamelodi West Library", "latitude" : -25.712733, "longitude" : 28.348600 },{ "name" : "Mahlasedi Masana Library", "latitude" : -25.716810, "longitude" : 28.419160 },{ "name" : "Stanza Bopape Library", "latitude" : -25.713250, "longitude" : 28.400450 },{ "name" : "Bronkhorstspruit Library", "latitude" : -25.809300, "longitude" : 28.743090 },{ "name" : "Mabopane Unit U Park", "latitude" : -25.51476, "longitude" : 28.03746 },{ "name" : "Soshanguve Park Bolck M", "latitude" : -25.522650, "longitude" : 28.058880 },{ "name" : "Soshanguve East Park", "latitude" : -25.591040, "longitude" : 28.097280 },{ "name" : "Thwalo street park", "latitude" : -25.596561, "longitude" : 28.106864 },{ "name" : "Block M Ext 1 Park", "latitude" : -25.553230, "longitude" : 28.102830 },{ "name" : "Ga-Rangkwa unit 7 park", "latitude" : -25.568270, "longitude" : 28.011000 },{ "name" : "Endemic Park", "latitude" : -25.593620, "longitude" : 27.971470 },{ "name" : "Puleng Park", "latitude" : -25.580810, "longitude" : 28.016870 },{ "name" : "Colbyn Glyn Park", "latitude" : -25.740710, "longitude" : 28.241750 },{ "name" : "Impala Park", "latitude" : -25.668670, "longitude" : 28.145930 },{ "name" : "Bokser Park", "latitude" : -25.655900, "longitude" : 28.140930 },{ "name" : "Seymore Park", "latitude" : -25.650340, "longitude" : 28.106620 },{ "name" : "Besembos Park", "latitude" : -25.676330, "longitude" : 28.110010 },{ "name" : "Capital Park Parkie", "latitude" : -25.725960, "longitude" : 28.183330 },{ "name" : "Pangolin Ave Park", "latitude" : -25.669570, "longitude" : 28.137670 },{ "name" : "Honey Suckle rd park", "latitude" : -25.683474, "longitude" : 28.235737 },{ "name" : "Limpopo ave park", "latitude" : -25.684130, "longitude" : 28.221210 },{ "name" : "Moonflower St Park", "latitude" : -25.679190, "longitude" : 28.229600 },{ "name" : "ongers st park", "latitude" : -25.685220, "longitude" : 28.225340 },{ "name" : "Overkruin", "latitude" : -25.678702, "longitude" : 28.217083 },{ "name" : "Ramotse park", "latitude" : -25.366150, "longitude" : 28.285950 },{ "name" : "Remotse N1 Park", "latitude" : -25.350990, "longitude" : 28.295410 },{ "name" : "Tsebe Ntlha", "latitude" : -25.372390, "longitude" : 28.254680 },{ "name" : "Japie Le Roux Park", "latitude" : -25.725390, "longitude" : 28.154050 },{ "name" : "Claremont Park", "latitude" : -25.710060, "longitude" : 28.137570 },{ "name" : "Eloffsdal park", "latitude" : -25.71137, "longitude" : 28.18589 },{ "name" : "Phillip Nel Park", "latitude" : -25.731129, "longitude" : 28.144052 },{ "name" : "Boekenhoutkloof straat park", "latitude" : -25.712460, "longitude" : 28.134550 },{ "name" : "Bruins park", "latitude" : -25.706570, "longitude" : 28.176700 },{ "name" : "Mountain View Park", "latitude" : -25.701060, "longitude" : 28.147870 },{ "name" : "Roseville Park", "latitude" : -25.707861, "longitude" : 28.174667 },{ "name" : "Bernard Street Parkie Garsfontein", "latitude" : -25.799820, "longitude" : 28.311900 },{ "name" : "Borzoi Park", "latitude" : -25.801270, "longitude" : 28.313460 },{ "name" : "Garsfontein Tennis and Skate Park", "latitude" : -25.788910, "longitude" : 28.285950 },{ "name" : "Hillside Bussiness Park", "latitude" : -25.768010, "longitude" : 28.266950 },{ "name" : "Hillside Sirkel Park", "latitude" : -25.769194, "longitude" : 28.264861 },{ "name" : "Moreleta Nature Reserve", "latitude" : -25.815480, "longitude" : 28.291690 },{ "name" : "Pretorius Park", "latitude" : -25.811150, "longitude" : 28.304700 },{ "name" : "Pro Arte Alphen Park", "latitude" : -25.781970, "longitude" : 28.263810 },{ "name" : "Jalapeno Park", "latitude" : -25.747100, "longitude" : 28.096530 },{ "name" : "Colbyn Golf Park", "latitude" : -25.741170, "longitude" : 28.248400 },{ "name" : "Swaan Street Park", "latitude" : -25.708330, "longitude" : 28.288310 },{ "name" : "Springbok Park", "latitude" : -25.745340, "longitude" : 28.237190 },{ "name" : "Kraanvoel park", "latitude" : -25.730630, "longitude" : 28.321000 },{ "name" : "Jacobson Drive Park", "latitude" : -25.765050, "longitude" : 28.296490 },{ "name" : "Spain Park", "latitude" : -25.741480, "longitude" : 28.152070 },{ "name" : "Bontle ke Bothe Park", "latitude" : -25.741370, "longitude" : 28.139220 },{ "name" : "Schneider Ave Park", "latitude" : -25.740310, "longitude" : 28.108430 },{ "name" : "Joos Becker Caravan Park", "latitude" : -25.696890, "longitude" : 28.184260 },{ "name" : "Visarend street park", "latitude" : -25.803340, "longitude" : 28.223300 },{ "name" : "Parsley Park", "latitude" : -25.671560, "longitude" : 28.202960 },{ "name" : "Jackson Van Zyl Park", "latitude" : -25.677630, "longitude" : 28.156680 },{ "name" : "Jopie Fourie St Park", "latitude" : -25.663230, "longitude" : 28.162630 },{ "name" : "Alwyn Park", "latitude" : -25.686220, "longitude" : 28.195490 },{ "name" : "17th Ave Park", "latitude" : -25.705350, "longitude" : 28.214300 },{ "name" : "Kuyper Avev Park", "latitude" : -25.699410, "longitude" : 28.216730 },{ "name" : "Aerangis park", "latitude" : -25.708950, "longitude" : 28.216730 },{ "name" : "Braam Pretorius Park", "latitude" : -25.686450, "longitude" : 28.274090 },{ "name" : "Breyer Ave Park", "latitude" : -25.697880, "longitude" : 28.265870 },{ "name" : "Combrink Park", "latitude" : -25.725430, "longitude" : 28.241030 },{ "name" : "Cooper Park", "latitude" : -25.71451, "longitude" : 28.21714 },{ "name" : "Peerboom st park", "latitude" : -25.650150, "longitude" : 28.229120 },{ "name" : "Queenswood Park", "latitude" : -25.729350, "longitude" : 28.248118 },{ "name" : "Pierre v. Ryneveld Park", "latitude" : -25.835550, "longitude" : 28.245780 },{ "name" : "Fluer Park", "latitude" : -25.821243, "longitude" : 28.208387 },{ "name" : "Elarduspark Park", "latitude" : -25.829500, "longitude" : 28.248972 },{ "name" : "Monument Park Parkie", "latitude" : -25.799580, "longitude" : 28.234710 },{ "name" : "Gabbro St Park", "latitude" : -25.839520, "longitude" : 28.262990 },{ "name" : "Gezina Netbal Club & Korbal Park", "latitude" : -25.716860, "longitude" : 28.206990 },{ "name" : "Jan Cilliers Park (Protea Park)", "latitude" : -25.778033, "longitude" : 28.225117 },{ "name" : "Freedom Park", "latitude" : -25.764986, "longitude" : 28.021886 },{ "name" : "Jubilee Park", "latitude" : -25.753333, "longitude" : 28.203611 },{ "name" : "Loveday Street Park", "latitude" : -25.760000, "longitude" : 28.210522 },{ "name" : "Myrtle Park", "latitude" : -25.752810, "longitude" : 28.216360 },{ "name" : "Zita Park", "latitude" : -25.792590, "longitude" : 28.292780 },{ "name" : "Camille Straat Park", "latitude" : -25.794160, "longitude" : 28.303370 },{ "name" : "Dvorak Street Park", "latitude" : -25.803270, "longitude" : 28.290070 },{ "name" : "Niemeyer Square Park", "latitude" : -25.770000, "longitude" : 28.239730 },{ "name" : "Hofmeyr park", "latitude" : -25.760960, "longitude" : 28.253980 },{ "name" : "Atteridgeville Park", "latitude" : -25.777675, "longitude" : 28.069585 },{ "name" : "Mphoka Park", "latitude" : -25.784350, "longitude" : 28.039140 },{ "name" : "Moretologa Park", "latitude" : -25.784400, "longitude" : 28.032570 },{ "name" : "Fidas Park", "latitude" : -25.767670, "longitude" : 28.080680 },{ "name" : "Ga Mothakga Resort", "latitude" : -25.762890, "longitude" : 28.069060 },{ "name" : "Jorissen Street", "latitude" : -25.757278, "longitude" : 28.213306 },{ "name" : "Kotze Street", "latitude" : -25.755304, "longitude" : 28.208188 },{ "name" : "Hans Moolman Park", "latitude" : -25.753600, "longitude" : 28.112483 },{ "name" : "Monate Park", "latitude" : -25.900260, "longitude" : 28.101460 },{ "name" : "Kiepersol Ave Park", "latitude" : -25.755360, "longitude" : 28.138278 },{ "name" : "Cradock Ave Park", "latitude" : -25.817960, "longitude" : 28.199030 },{ "name" : "The Bye Park", "latitude" : -25.837990, "longitude" : 28.164520 },{ "name" : "Erasmia circle park", "latitude" : -25.811960, "longitude" : 28.090070 },{ "name" : "Senekal park", "latitude" : -25.874610, "longitude" : 28.153210 },{ "name" : "Van Riebeeck Road", "latitude" : -25.790830, "longitude" : 28.147540 },{ "name" : "Rooihuiskraal Historical Park", "latitude" : -25.883650, "longitude" : 28.144270 },{ "name" : "Ellips straat park", "latitude" : -25.738680, "longitude" : 28.326320 },{ "name" : "Pienaar Dr Park", "latitude" : -25.739520, "longitude" : 28.311390 },{ "name" : "Moretele Nature Reserve", "latitude" : -25.703067, "longitude" : 28.359865 },{ "name" : "Ostrich Park", "latitude" : -25.698420, "longitude" : 28.307960 },{ "name" : "King Fisher park", "latitude" : -25.702970, "longitude" : 28.308650 },{ "name" : "Ekangala Section F Park", "latitude" : -25.658150, "longitude" : 28.725560 },{ "name" : "New Thematic Park", "latitude" : -25.662150, "longitude" : 28.739190 },{ "name" : "Letlotlo Middle School", "latitude" : -25.502560, "longitude" : 28.072660 },{ "name" : "Retlilepele Primary School", "latitude" : -25.511900, "longitude" : 28.076960 },{ "name" : "Setumo-Khiba Middle School", "latitude" : -25.512600, "longitude" : 28.075367 },{ "name" : "Tsibogo Middle School", "latitude" : -25.497790, "longitude" : 28.037790 },{ "name" : "Bafeti Middle school", "latitude" : -25.511970, "longitude" : 28.066820 },{ "name" : "Nong Primary School", "latitude" : -25.518880, "longitude" : 28.052621 },{ "name" : "Matsediso School", "latitude" : -25.522030, "longitude" : 28.065810 },{ "name" : "Reatlegile Primary School", "latitude" : -25.509800, "longitude" : 28.026100 },{ "name" : "Tsewe Primary School", "latitude" : -25.490430, "longitude" : 28.005600 },{ "name" : "TIPFUXENI PRIMARY SCHOOL", "latitude" : -25.528600, "longitude" : 28.088130 },{ "name" : "TIYELELANI SECONDARY SCHOOL", "latitude" : -25.529340, "longitude" : 28.086770 },{ "name" : "MEMEZELO SECONDARY SCHOOL", "latitude" : -25.503184, "longitude" : 28.094170 },{ "name" : "MORULA VIEW PRIMARY SCHOOL", "latitude" : -25.525435, "longitude" : 28.044843 },{ "name" : "REKOPANTSE PRIMARY SCHOOL", "latitude" : -25.517889, "longitude" : 28.049083 },{ "name" : "PELOTONA MIDDLE SCHOOL", "latitude" : -25.516500, "longitude" : 28.040640 },{ "name" : "D.A. MOKOMA SECONDARY SCHOOL", "latitude" : -25.515940, "longitude" : 28.049490 },{ "name" : "DR. A.T. MOREOSELE SECONDARY SCHOOL", "latitude" : -25.507380, "longitude" : 28.038293 },{ "name" : "RADINEO PRIMARY SCHOOL", "latitude" : -25.497650, "longitude" : 28.039933 },{ "name" : "BOTSALO PRIMARY SCHOOL", "latitude" : -25.508212, "longitude" : 28.055099 },{ "name" : "KOPA DILALELO PRIMARY SCHOOL", "latitude" : -25.515537, "longitude" : 28.068629 },{ "name" : "NGAKA MASEKO HIGH SCHOOL", "latitude" : -25.489360, "longitude" : 28.049910 },{ "name" : "ABEL MOTSHOANE HIGH SCHOOL", "latitude" : -25.481430, "longitude" : 28.043400 },{ "name" : "EMA PRIMARY SCHOOL", "latitude" : -25.482751, "longitude" : 28.045857 },{ "name" : "FR. SMANGALISO MKHATSHWA SECONDARY SCHOOL", "latitude" : -25.482923, "longitude" : 28.045894 },{ "name" : "MABOPANE HIGH SCHOOL", "latitude" : -25.500760, "longitude" : 28.061700 },{ "name" : "IKELENG PRIMARY SCHOOL", "latitude" : -25.486260, "longitude" : 28.052100 },{ "name" : "DITSHABA PRIMARY SCHOOL", "latitude" : -25.500150, "longitude" : 28.061467 },{ "name" : "TIDIMALONG PRIMARY PRIMARY", "latitude" : -25.478280, "longitude" : 28.050290 },{ "name" : "MARULA PRIMARY SCHOOL", "latitude" : -25.506737, "longitude" : 28.070087 },{ "name" : "SOSHANGAAN PRIMARY SCHOOL", "latitude" : -25.500755, "longitude" : 28.067977 },{ "name" : "MATSEKE PRIMARY SCHOOL", "latitude" : -25.514208, "longitude" : 28.077436 },{ "name" : "SUNVALLEY PRIMARY SCHOOL", "latitude" : -25.523615, "longitude" : 28.079682 },{ "name" : "Ikhwezilethemba Intermediary S", "latitude" : -25.507460, "longitude" : 28.095420 },{ "name" : "REDIBONE PRIMARY SCHOOL", "latitude" : -25.515850, "longitude" : 28.095420 },{ "name" : "Mapenane School", "latitude" : -25.588517, "longitude" : 27.983300 },{ "name" : "Sjambok Primary", "latitude" : -25.564880, "longitude" : 28.042170 },{ "name" : "Rosslyn Primary School", "latitude" : -25.626290, "longitude" : 28.055600 },{ "name" : "RODNEY MOKOENA PREPARATORY SCHOOL", "latitude" : -25.553680, "longitude" : 28.068060 },{ "name" : "REFITHLILE PELE PRIMARY SCHOOL NO 1", "latitude" : -25.559630, "longitude" : 28.069460 },{ "name" : "BOKAMOSO PRIMARY SCHOOL", "latitude" : -25.584270, "longitude" : 28.082760 },{ "name" : "THORNTREE PRIMARY SCHOOL", "latitude" : -25.593000, "longitude" : 28.079583 },{ "name" : "SOSHANGUVE SOUTH SECONDARY SCHOOL", "latitude" : -25.576167, "longitude" : 28.059389 },{ "name" : "AYANDA PRIMARY SCHOOL", "latitude" : -25.575521, "longitude" : 28.061298 },{ "name" : "ITUMELENG MADIBA PRIMARY SCHOOL", "latitude" : -25.567480, "longitude" : 28.063810 },{ "name" : "CENTRAL SECONDARY SCHOOL", "latitude" : -25.560321, "longitude" : 28.080585 },{ "name" : "SHALOM PRIMARY SCHOOL", "latitude" : -25.555260, "longitude" : 28.078300 },{ "name" : "GONTSE PRIMARY SCHOOL", "latitude" : -25.569446, "longitude" : 28.072362 },{ "name" : "SINQOBILE PRIMARY SCHOOL", "latitude" : -25.498935, "longitude" : 28.110190 },{ "name" : "Matlapeng primary school", "latitude" : -25.560150, "longitude" : 28.078960 },{ "name" : "Curro Academic", "latitude" : -25.573810, "longitude" : 28.093490 },{ "name" : "Sinqobile Primary School", "latitude" : -25.549380, "longitude" : 28.086020 },{ "name" : "Bolokanang school", "latitude" : -25.609850, "longitude" : 28.000340 },{ "name" : "TIM MODISE PRIMARY SCHOOL", "latitude" : -25.607683, "longitude" : 28.009700 },{ "name" : "Ikangeng Primary School", "latitude" : -25.611761, "longitude" : 28.001344 },{ "name" : "TLOTLOMPHO PRIMARY SCHOOL", "latitude" : -25.615450, "longitude" : 27.991250 },{ "name" : "LEKGALONG PRIMARY", "latitude" : -25.615150, "longitude" : 27.979000 },{ "name" : "TOKYO SEXWALE PRIMARY SCHOOL", "latitude" : -25.609865, "longitude" : 27.995315 },{ "name" : "Molefe-Mooke Primary School", "latitude" : -25.383550, "longitude" : 28.192810 },{ "name" : "BOKAMOSO HIGH SCHOOL", "latitude" : -25.395828, "longitude" : 28.152068 },{ "name" : "Modilati Secondary School", "latitude" : -25.395520, "longitude" : 28.155910 },{ "name" : "Motjibosane Primary", "latitude" : -25.391510, "longitude" : 28.177810 },{ "name" : "Namo Primary School", "latitude" : -25.389770, "longitude" : 28.161670 },{ "name" : "Ntswane High School", "latitude" : -25.393200, "longitude" : 28.188710 },{ "name" : "Redirile Primary School", "latitude" : -25.410320, "longitude" : 28.133100 },{ "name" : "LORATONG PRIMARY SCHOOL", "latitude" : -25.406210, "longitude" : 28.167090 },{ "name" : "REFENTSE", "latitude" : -25.379820, "longitude" : 28.171400 },{ "name" : "Marotola Primary School", "latitude" : -25.412570, "longitude" : 28.154560 },{ "name" : "Ramabele Middle School", "latitude" : -25.414290, "longitude" : 28.138430 },{ "name" : "Rakgotse High School", "latitude" : -25.399180, "longitude" : 28.134800 },{ "name" : "Kgomba primary school", "latitude" : -25.402840, "longitude" : 28.134850 },{ "name" : "Fatlhogang Primary School", "latitude" : -25.396160, "longitude" : 28.169430 },{ "name" : "Tipfuxeni Secondary School", "latitude" : -25.391890, "longitude" : 28.170830 },{ "name" : "Boikanyo Primary School", "latitude" : -25.598453, "longitude" : 27.996341 },{ "name" : "Bethesda special school", "latitude" : -25.572400, "longitude" : 28.015560 },{ "name" : "PATOGENG PRIMARY", "latitude" : -25.555990, "longitude" : 28.054100 },{ "name" : "LEBOGANG PRIMARY SCHOOL", "latitude" : -25.599982, "longitude" : 27.979738 },{ "name" : "MAROPENG PRIMARY SCHOOL", "latitude" : -25.595530, "longitude" : 27.976390 },{ "name" : "RANTAILANE HIGH SCHOOL", "latitude" : -25.595860, "longitude" : 27.986610 },{ "name" : "HL SETLALENTOA SECONDARY SCHOOL", "latitude" : -25.596270, "longitude" : 27.994960 },{ "name" : "BODUBELO PRIMARY", "latitude" : -25.587920, "longitude" : 27.977040 },{ "name" : "MAPENANE PRIMARY SCHOOL", "latitude" : -25.589210, "longitude" : 27.983270 },{ "name" : "LOWE PRIMARY SCHOOL", "latitude" : -25.587545, "longitude" : 27.981806 },{ "name" : "RAKALE THABONG PRIMARY SCHOOL", "latitude" : -25.595340, "longitude" : 28.009560 },{ "name" : "BACHANA MOKWENA PRIMARY SCHOOL", "latitude" : -25.549650, "longitude" : 27.985317 },{ "name" : "TEBOGWANA HIGH SCHOOL", "latitude" : -25.576017, "longitude" : 28.017133 },{ "name" : "NM TSUENE HIGH SCHOOL", "latitude" : -25.595467, "longitude" : 28.018233 },{ "name" : "MODIRI SECONDARY SCHOOL", "latitude" : -25.604600, "longitude" : 27.994040 },{ "name" : "A RETHABENG PRIMARY SCHOOL", "latitude" : -25.542600, "longitude" : 28.105570 },{ "name" : "BOEPATHUTSE JUNIOR SECONDARY", "latitude" : -25.511520, "longitude" : 28.104740 },{ "name" : "DC MARIVATE JUNIOR SECONDARY SCHOOL", "latitude" : -25.521790, "longitude" : 28.104970 },{ "name" : "DIKAGO DINTLE PRIMARY SCHOOL", "latitude" : -25.442250, "longitude" : 28.014240 },{ "name" : "DIKGAKOLOGO PRIMARY SCHOOL", "latitude" : -25.451778, "longitude" : 28.055472 },{ "name" : "DITHABANENG PRIMARY SCHOOL", "latitude" : -25.512655, "longitude" : 28.102015 },{ "name" : "Dr. Motsuenyane Secondary School", "latitude" : -25.466830, "longitude" : 28.072750 },{ "name" : "EDWIN MOALUSI PRIMARY", "latitude" : -25.492530, "longitude" : 28.059520 },{ "name" : "ENTOKOZWENI PRIMARY SCHOOL", "latitude" : -25.493481, "longitude" : 28.104486 },{ "name" : "Filadelfia School", "latitude" : -25.546636, "longitude" : 28.090250 },{ "name" : "Galeboe Middle School", "latitude" : -25.465680, "longitude" : 28.064810 },{ "name" : "HLANGANANI SECONDARY SCHOOL", "latitude" : -25.509117, "longitude" : 28.118050 },{ "name" : "HLOMPHANANG SECONDARY SCHOOL", "latitude" : -25.544139, "longitude" : 28.106838 },{ "name" : "Holy Trinity School", "latitude" : -25.420917, "longitude" : 27.984617 },{ "name" : "Itseng Primary School", "latitude" : -25.421040, "longitude" : 27.983080 },{ "name" : "KHENSANI PRIMARY SCHOOL", "latitude" : -25.524190, "longitude" : 28.105430 },{ "name" : "KHUTSO PRIMARY SCHOOL", "latitude" : -25.524907, "longitude" : 28.100227 },{ "name" : "KULANI PRIMARY SCHOOL", "latitude" : -25.446380, "longitude" : 28.065260 },{ "name" : "KUTUNG PRIMARY SCHOOL", "latitude" : -25.533333, "longitude" : 28.108972 },{ "name" : "Laerskool Haakdoorn", "latitude" : -25.598030, "longitude" : 28.134890 },{ "name" : "LETHABONG SECONDARY SCHOOL", "latitude" : -25.506730, "longitude" : 28.106750 },{ "name" : "MMAFUMBUKA PRIMARY SCHOOL", "latitude" : -25.449500, "longitude" : 28.084500 },{ "name" : "MAHLWARENG PRIMARY SCHOOL", "latitude" : -25.451580, "longitude" : 28.055500 },{ "name" : "MAKHOSINI COMBINED SECONDARY SCHOOL", "latitude" : -25.447690, "longitude" : 28.089990 },{ "name" : "MATHAGA PRIMARY SCHOOL", "latitude" : -25.547430, "longitude" : 28.102450 },{ "name" : "Medicos Special School", "latitude" : -25.545900, "longitude" : 28.087160 },{ "name" : "MEETSENG PRIMARY SCHOOL", "latitude" : -25.538930, "longitude" : 28.099660 },{ "name" : "Merafeng Primary School", "latitude" : -25.405500, "longitude" : 28.021556 },{ "name" : "MLOKOTWA DUBE PRIMARY SCHOOL", "latitude" : -25.442410, "longitude" : 28.011560 },{ "name" : "MMAMASIANOKA PRIMARY SCHOOL", "latitude" : -25.518320, "longitude" : 28.097270 },{ "name" : "MODISELLE PRIMARY SCHOOL", "latitude" : -25.580210, "longitude" : 28.017240 },{ "name" : "New Eersterus Secondary", "latitude" : -25.424800, "longitude" : 28.123690 },{ "name" : "NICK MPSHE SECONDARY SCHOOL", "latitude" : -25.444226, "longitude" : 28.016925 },{ "name" : "NTSHA PEU PRIMARY SCHOOL", "latitude" : -25.507419, "longitude" : 28.102712 },{ "name" : "Patrick Moloto Primary School", "latitude" : -25.500560, "longitude" : 28.077100 },{ "name" : "PELE PRIMARY SCHOOL", "latitude" : -25.600990, "longitude" : 28.104900 },{ "name" : "PHUMZILE PRIMARY SCHOOL", "latitude" : -25.517430, "longitude" : 28.110950 },{ "name" : "PHUTHANANG PRIMARY SCHOOL", "latitude" : -25.530720, "longitude" : 28.099800 },{ "name" : "REFENTSE PRIMARY", "latitude" : -25.374113, "longitude" : 28.298020 },{ "name" : "REFILWE PRIMARY SCHOOL", "latitude" : -25.468200, "longitude" : 28.074370 },{ "name" : "Reimolotswe Primary School", "latitude" : -25.415380, "longitude" : 28.039720 },{ "name" : "REITUMETSE SECONDARY SCHOOL", "latitude" : -25.540720, "longitude" : 28.105490 },{ "name" : "RETHOMILE PRIMARY SCHOOL", "latitude" : -25.535820, "longitude" : 28.103940 },{ "name" : "RHULANI PRIMARY SCHOOL", "latitude" : -25.516430, "longitude" : 28.110200 },{ "name" : "RS MALULEKE PRIMARY SCHOOL", "latitude" : -25.509468, "longitude" : 28.108144 },{ "name" : "RUABOHLALE JUNIOR SECONDARY SCHOOL", "latitude" : -25.556230, "longitude" : 28.070920 },{ "name" : "SEAGENG PRIMARY SCHOOL", "latitude" : -25.568600, "longitude" : 28.045244 },{ "name" : "SEMPHATO PRIMARY SCHOOL", "latitude" : -25.456210, "longitude" : 28.089030 },{ "name" : "Siamisang Primary School", "latitude" : -25.493340, "longitude" : 28.070180 },{ "name" : "Siphamandla Primary School", "latitude" : -25.513753, "longitude" : 28.116244 },{ "name" : "SOSHANGUVE TECHNICAL SECONDARY SCHOOL", "latitude" : -25.539040, "longitude" : 28.107030 },{ "name" : "Thaba Primary School", "latitude" : -25.404980, "longitude" : 28.016100 },{ "name" : "Thulasizwe Primary School", "latitude" : -25.522733, "longitude" : 28.107475 },{ "name" : "THULGANYO JR. SECONDARY", "latitude" : -25.450390, "longitude" : 28.055040 },{ "name" : "Thutong Junior Secondary School", "latitude" : -25.530720, "longitude" : 28.099800 },{ "name" : "THUTONG JUNIOR SECONDARY SCHOOL", "latitude" : -25.531630, "longitude" : 28.099290 },{ "name" : "TSHWANE CHRISTIAN SCHOOL", "latitude" : -25.538470, "longitude" : 28.139590 },{ "name" : "TSWAING HIGH SCHOOL", "latitude" : -25.448842, "longitude" : 28.053620 },{ "name" : "UBUHLE-BEZWE JUNIOR SECONDARY", "latitude" : -25.507200, "longitude" : 28.113510 },{ "name" : "WALLMANSTHAL PRIMARY SCHOOL", "latitude" : -25.531130, "longitude" : 28.102230 },{ "name" : "Laerskool Akasia", "latitude" : -25.649266, "longitude" : 28.125176 },{ "name" : "Laerskool Voortrekker-Eeufees", "latitude" : -25.665275, "longitude" : 28.171017 },{ "name" : "Hoërskool Akasia", "latitude" : -25.670343, "longitude" : 28.129420 },{ "name" : "Metro Police Winternest", "latitude" : -25.648170, "longitude" : 28.128900 },{ "name" : "Amandasig Secondary School", "latitude" : -25.672490, "longitude" : 28.097570 },{ "name" : "Capital Park Primary School", "latitude" : -25.728550, "longitude" : 28.188117 },{ "name" : "Iona Convert school", "latitude" : -25.727860, "longitude" : 28.203980 },{ "name" : "Laerskool Tuinrand", "latitude" : -25.720267, "longitude" : 28.136883 },{ "name" : "Hoër Tegniese Skool Pretoria-Tuine", "latitude" : -25.718650, "longitude" : 28.132067 },{ "name" : "Hoërskool Gerrit Maritz", "latitude" : -25.665710, "longitude" : 28.154860 },{ "name" : "Onderstepoort Primary School", "latitude" : -25.638800, "longitude" : 28.177767 },{ "name" : "Gontse Primary School", "latitude" : -25.570467, "longitude" : 28.070100 },{ "name" : "Lesedi Primary School", "latitude" : -25.589170, "longitude" : 28.105700 },{ "name" : "soshanguve secondary school", "latitude" : -25.588040, "longitude" : 28.099040 },{ "name" : "VUKANI PRIMARY", "latitude" : -25.485300, "longitude" : 28.112467 },{ "name" : "AMOGELANG SECONDARY SCHOOL", "latitude" : -25.482661, "longitude" : 28.123335 },{ "name" : "BABINAPHUTI SECONDARY SCHOOL", "latitude" : -25.488417, "longitude" : 28.103889 },{ "name" : "BOTSE-BOTSE SECONDARY", "latitude" : -25.466780, "longitude" : 28.091720 },{ "name" : "Dilopye School", "latitude" : -25.383420, "longitude" : 28.193490 },{ "name" : "DIMAKATSO PRIMARY", "latitude" : -25.450230, "longitude" : 28.120840 },{ "name" : "ECHIBINE SECONDARY SCHOOL", "latitude" : -25.462950, "longitude" : 28.096923 },{ "name" : "ELIZABETH MATSEMELA SECONDARY", "latitude" : -25.493710, "longitude" : 28.104920 },{ "name" : "FUNEKILE SECONDARY", "latitude" : -25.441383, "longitude" : 28.121117 },{ "name" : "I. R. LESOLANG SECONDARY SCHOOL", "latitude" : -25.492767, "longitude" : 28.072339 },{ "name" : "KGADIME MATSEPE SECONDARY", "latitude" : -25.455670, "longitude" : 28.123460 },{ "name" : "KGOMOTSO SECONDARY", "latitude" : -25.487733, "longitude" : 28.111650 },{ "name" : "KGOTLELELANG PRIMARY", "latitude" : -25.439818, "longitude" : 28.109663 },{ "name" : "KONDELELANI PRIMARY", "latitude" : -25.459420, "longitude" : 28.119221 },{ "name" : "LESEDI POTLANA PRIMARY", "latitude" : -25.455680, "longitude" : 28.127090 },{ "name" : "LINDELANI PRIMARY SCHOOL", "latitude" : -25.464883, "longitude" : 28.091367 },{ "name" : "LUCAS MOTSHABANOSI SECONDARY SCHOOL", "latitude" : -25.485240, "longitude" : 28.075530 },{ "name" : "M. H. Baloyi Secondary School", "latitude" : -25.493760, "longitude" : 28.071160 },{ "name" : "M.J. MGIDI SECONDARY SCHOOL", "latitude" : -25.470983, "longitude" : 28.133317 },{ "name" : "Manamelong Primary School", "latitude" : -25.490910, "longitude" : 28.072390 },{ "name" : "MMABANA PRIMARY SCHOOL", "latitude" : -25.461130, "longitude" : 28.132340 },{ "name" : "Mmatso Primary School", "latitude" : -25.408700, "longitude" : 28.131650 },{ "name" : "MZIMUHLE PRIMARY SCHOOL", "latitude" : -25.460210, "longitude" : 28.099990 },{ "name" : "NCHUNCHEKO PRIMARY", "latitude" : -25.465920, "longitude" : 28.125920 },{ "name" : "NTSAKO SECONDARY SCHOOL", "latitude" : -25.477360, "longitude" : 28.096520 },{ "name" : "PADISAGO PRIMARY SCHOOL", "latitude" : -25.488942, "longitude" : 28.097994 },{ "name" : "PHAKAMONOLA PRIMARY SCHOOL", "latitude" : -25.464880, "longitude" : 28.084800 },{ "name" : "PULAMADIBOGO PRIMARY SCHOOL", "latitude" : -25.486930, "longitude" : 28.135320 },{ "name" : "RAIKANA PRIMARY SCHOOL", "latitude" : -25.480460, "longitude" : 28.128370 },{ "name" : "Rapelego Primary School", "latitude" : -25.410980, "longitude" : 28.118880 },{ "name" : "REFALOTSE PRIMARY SCHOOL", "latitude" : -25.486060, "longitude" : 28.073970 },{ "name" : "RIVONINGO PRIMARY SCHOOL", "latitude" : -25.456140, "longitude" : 28.083010 },{ "name" : "SEDIBA SA TSEBO PRIMARY SCHOOL", "latitude" : -25.492680, "longitude" : 28.111030 },{ "name" : "SENTHIBELE SENIOR SECONDARY", "latitude" : -25.475157, "longitude" : 28.126331 },{ "name" : "SIYOKHELA PRIMARY SCHOOL", "latitude" : -25.497956, "longitude" : 28.098034 },{ "name" : "SOSHANGUVE secondary school", "latitude" : -25.479260, "longitude" : 28.100410 },{ "name" : "ST FRANCIS PRIMARY SCHOOL", "latitude" : -25.487770, "longitude" : 28.123650 },{ "name" : "THAKGALANG JUNIOR SECONDARY SCHOOL", "latitude" : -25.484950, "longitude" : 28.131130 },{ "name" : "TIAMOKO PRIMARY SCHOOL", "latitude" : -25.475005, "longitude" : 28.101355 },{ "name" : "TLAMAGANYO PRIMARY", "latitude" : -25.480670, "longitude" : 28.104260 },{ "name" : "TSAROGA-PHOKA PRIMARY SCHOOL", "latitude" : -25.491284, "longitude" : 28.102988 },{ "name" : "Tsosoloso Special School", "latitude" : -25.454100, "longitude" : 28.113710 },{ "name" : "UTHANDO PRIMARY SCHOOL", "latitude" : -25.475590, "longitude" : 28.122820 },{ "name" : "VUKOSI PRIMARY", "latitude" : -25.438076, "longitude" : 28.118899 },{ "name" : "Winterveldt High School", "latitude" : -25.402930, "longitude" : 28.023780 },{ "name" : "Ho‘rskool Montana", "latitude" : -25.6736, "longitude" : 28.2418 },{ "name" : "Laerskool Magalieskruin", "latitude" : -25.6835, "longitude" : 28.2374 },{ "name" : "Laerskool Stephanus Roos", "latitude" : -25.6802, "longitude" : 28.2216 },{ "name" : "Northridge Primary School", "latitude" : -25.6856, "longitude" : 28.2181 },{ "name" : "Boitshepo Secondary School", "latitude" : -25.3718, "longitude" : 28.2875 },{ "name" : "Dominici School For The Dear - Primary", "latitude" : -25.4047, "longitude" : 28.2554 },{ "name" : "Dominici School For The Dear - Secondary", "latitude" : -25.4059, "longitude" : 28.2605 },{ "name" : "Hamanskraal wes primary", "latitude" : -25.4207, "longitude" : 28.265 },{ "name" : "Hans Kekakana High", "latitude" : -25.3633, "longitude" : 28.2359 },{ "name" : "Hosea Kekana High School", "latitude" : -25.3573, "longitude" : 28.2861 },{ "name" : "Iketle School", "latitude" : -25.4121, "longitude" : 28.2511 },{ "name" : "Itireleng Primary school", "latitude" : -25.4124, "longitude" : 28.251 },{ "name" : "Kekana Primary School", "latitude" : -25.355, "longitude" : 28.2479 },{ "name" : "Kgetseyatsie Middle School", "latitude" : -25.3797, "longitude" : 28.2566 },{ "name" : "Kudube Primary School", "latitude" : -25.3953, "longitude" : 28.2732 },{ "name" : "Lebelo Primary School", "latitude" : -25.3571, "longitude" : 28.2949 },{ "name" : "Leboneng Primary School", "latitude" : -25.366, "longitude" : 28.2655 },{ "name" : "Lefofa Primary School", "latitude" : -25.385, "longitude" : 28.2621 },{ "name" : "LEHWELERENG SECONDARY", "latitude" : -25.4101, "longitude" : 28.2553 },{ "name" : "LETHAMAGA SECONDARY SCHOOL", "latitude" : -25.3735, "longitude" : 28.298 },{ "name" : "Mabu-A-Tlou Primary", "latitude" : -25.3671, "longitude" : 28.2223 },{ "name" : "Madisong secondary school", "latitude" : -25.3672, "longitude" : 28.2627 },{ "name" : "Makgake Primary School", "latitude" : -25.3801, "longitude" : 28.2812 },{ "name" : "Makgetse High School", "latitude" : -25.389, "longitude" : 28.2671 },{ "name" : "Marokolong Primary School", "latitude" : -25.3848, "longitude" : 28.2885 },{ "name" : "Masakhane Primary School", "latitude" : -25.3859, "longitude" : 28.2365 },{ "name" : "moditela secondary school", "latitude" : -25.3716, "longitude" : 28.2227 },{ "name" : "Mokonyama Primary School", "latitude" : -25.3438, "longitude" : 28.2909 },{ "name" : "Mokonyama Primary School 2", "latitude" : -25.395, "longitude" : 28.2953 },{ "name" : "Mosaledi Primary School", "latitude" : -25.3846, "longitude" : 28.2631 },{ "name" : "P.H.L Moraka Secondary School", "latitude" : -25.3737, "longitude" : 28.2477 },{ "name" : "Ratshepo High School", "latitude" : -25.3792, "longitude" : 28.2541 },{ "name" : "Refitlhile Primary School", "latitude" : -25.3874, "longitude" : 28.2647 },{ "name" : "Reneilwe Primary School", "latitude" : -25.375, "longitude" : 28.2626 },{ "name" : "Rethabile primary school", "latitude" : -25.3694, "longitude" : 28.3131 },{ "name" : "SEKAMPANENG PRIMARY SCHOOL", "latitude" : -25.3974, "longitude" : 28.2338 },{ "name" : "Selang Primary School", "latitude" : -25.3605, "longitude" : 28.2679 },{ "name" : "Seroto School", "latitude" : -25.3581, "longitude" : 28.251 },{ "name" : "Sikhululekile School", "latitude" : -25.3803, "longitude" : 28.2483 },{ "name" : "St Camillus Primary School", "latitude" : -25.3906, "longitude" : 28.3008 },{ "name" : "steve biko secondary school", "latitude" : -25.3695, "longitude" : 28.3179 },{ "name" : "Burgher Right Primary School", "latitude" : -25.750570, "longitude" : 28.157610 },{ "name" : "Laerskool Die Heuwel", "latitude" : -25.752674, "longitude" : 28.139025 },{ "name" : "Hoërskool Tuine", "latitude" : -25.725150, "longitude" : 28.142650 },{ "name" : "Laerskool Tuine", "latitude" : -25.724910, "longitude" : 28.147450 },{ "name" : "Laerskool Danville", "latitude" : -25.739467, "longitude" : 28.132567 },{ "name" : "Daspoort Secondary School", "latitude" : -25.713483, "longitude" : 28.141517 },{ "name" : "Hoërskool Hercules", "latitude" : -25.715567, "longitude" : 28.146500 },{ "name" : "Laerskool Booysens", "latitude" : -25.70884, "longitude" : 28.12606 },{ "name" : "Laerskool Hermanstad", "latitude" : -25.716817, "longitude" : 28.155350 },{ "name" : "Kwaggasrandskool", "latitude" : -25.760483, "longitude" : 28.117550 },{ "name" : "Laerskool Mayville", "latitude" : -25.705650, "longitude" : 28.183083 },{ "name" : "Laerskool Bergsig", "latitude" : -25.699333, "longitude" : 28.166050 },{ "name" : "Laerskool Saamspan", "latitude" : -25.697740, "longitude" : 28.157850 },{ "name" : "Hillview High School", "latitude" : -25.711650, "longitude" : 28.174997 },{ "name" : "Suiderberg Skool", "latitude" : -25.696860, "longitude" : 28.143220 },{ "name" : "Laerskool Boerefort", "latitude" : -25.700233, "longitude" : 28.193283 },{ "name" : "Camera Pole 215 - C/O Dely & Lois", "latitude" : -25.795601, "longitude" : 28.269590 },{ "name" : "Hoërskool Garsfontein", "latitude" : -25.798367, "longitude" : 28.305317 },{ "name" : "Laerskool Elarduspark", "latitude" : -25.829230, "longitude" : 28.259870 },{ "name" : "Laerskool Garsfontein", "latitude" : -25.791100, "longitude" : 28.296067 },{ "name" : "Laerskool Tygerpoort", "latitude" : -25.795824, "longitude" : 28.354914 },{ "name" : "Lynnwood Ridge Primary School", "latitude" : -25.762550, "longitude" : 28.299300 },{ "name" : "BOKGONI TECHNICAL SECONDARY SCHOOL", "latitude" : -25.764417, "longitude" : 28.085367 },{ "name" : "WALTON JAMESON PRIMARY SCHOOL", "latitude" : -25.764640, "longitude" : 28.085110 },{ "name" : "Matseke Primary School", "latitude" : -25.773050, "longitude" : 28.074890 },{ "name" : "Laerskool Kameeldrift", "latitude" : -25.712120, "longitude" : 28.006770 },{ "name" : "Laerskool Kameelfontein", "latitude" : -25.602720, "longitude" : 28.403100 },{ "name" : "Bagale primary school", "latitude" : -25.752350, "longitude" : 28.067190 },{ "name" : "Laerskool Wespark", "latitude" : -25.757300, "longitude" : 28.123290 },{ "name" : "St. Paulis School", "latitude" : -25.750719, "longitude" : 28.286364 },{ "name" : "St Marys School", "latitude" : -25.756280, "longitude" : 28.241600 },{ "name" : "Lesedi Secondary school", "latitude" : -25.773233, "longitude" : 28.4448 },{ "name" : "Laerskool Skuilkrans", "latitude" : -25.749067, "longitude" : 28.303167 },{ "name" : "Hoërskool Silverton", "latitude" : -25.736590, "longitude" : 28.302960 },{ "name" : "Laerskool Silverton", "latitude" : -25.732050, "longitude" : 28.301117 },{ "name" : "Hoërskool Langenhoven", "latitude" : -25.733100, "longitude" : 28.188000 },{ "name" : "Hoërskool Pretoria-Wes", "latitude" : -25.740600, "longitude" : 28.157570 },{ "name" : "Laerskool Simon Bekker", "latitude" : -25.753590, "longitude" : 28.153770 },{ "name" : "Transoranje Skool", "latitude" : -25.748720, "longitude" : 28.129900 },{ "name" : "Hoërskool Elandspoort", "latitude" : -25.742590, "longitude" : 28.124410 },{ "name" : "Laerskool Generaal Beyers", "latitude" : -25.743650, "longitude" : 28.126950 },{ "name" : "Annlin Tennis Club", "latitude" : -25.681639, "longitude" : 28.197444 },{ "name" : "Hoërskool Pretoria-Noord", "latitude" : -25.683983, "longitude" : 28.168567 },{ "name" : "Laerskool Danie Malan", "latitude" : -25.676450, "longitude" : 28.178710 },{ "name" : "Laerskool Rachel De Beer", "latitude" : -25.662061, "longitude" : 28.156670 },{ "name" : "ASSUMPTION CONVENT SCHOOL", "latitude" : -25.672280, "longitude" : 28.179620 },{ "name" : "Laerskool Wonderboom", "latitude" : -25.682950, "longitude" : 28.199830 },{ "name" : "Hoërskool Overkruin", "latitude" : -25.684490, "longitude" : 28.209500 },{ "name" : "Alma Primary School", "latitude" : -25.712410, "longitude" : 28.196600 },{ "name" : "Eduplex Primary School", "latitude" : -25.724360, "longitude" : 28.247890 },{ "name" : "Hoërskool Oos-Moot", "latitude" : -25.708010, "longitude" : 28.241080 },{ "name" : "Hoërskool Staatspresident C R Swart", "latitude" : -25.708367, "longitude" : 28.256650 },{ "name" : "Kodumela Primary School", "latitude" : -25.602433, "longitude" : 28.207367 },{ "name" : "Laerskool Eben Swemmer", "latitude" : -25.718090, "longitude" : 28.210050 },{ "name" : "Laerskool Lindopark", "latitude" : -25.712160, "longitude" : 28.271620 },{ "name" : "Laerskool Nellie Swart", "latitude" : -25.720010, "longitude" : 28.257010 },{ "name" : "Laerskool Pierneef", "latitude" : -25.721740, "longitude" : 28.230330 },{ "name" : "Laerskool Queenswood", "latitude" : -25.731970, "longitude" : 28.253631 },{ "name" : "Laerskool Villieria", "latitude" : -25.711530, "longitude" : 28.235650 },{ "name" : "Laerskool Voorpos", "latitude" : -25.702880, "longitude" : 28.258910 },{ "name" : "Loreto school queenswood", "latitude" : -25.735242, "longitude" : 28.243381 },{ "name" : "Robert Hicks Primary School", "latitude" : -25.725687, "longitude" : 28.209125 },{ "name" : "Willowridge High School", "latitude" : -25.761410, "longitude" : 28.314050 },{ "name" : "Laerskool Monumentpark", "latitude" : -25.801370, "longitude" : 28.229890 },{ "name" : "Pretoria Chinese Skool", "latitude" : -25.827360, "longitude" : 28.268490 },{ "name" : "Arcadia Primary School", "latitude" : -25.746670, "longitude" : 28.219970 },{ "name" : "Pretoria Technical High School", "latitude" : -25.750020, "longitude" : 28.212410 },{ "name" : "Brooklyn Primary School", "latitude" : -25.764117, "longitude" : 28.243133 },{ "name" : "Laerskool Pretoria-Oos", "latitude" : -25.758633, "longitude" : 28.230083 },{ "name" : "Pretoria Boys' High School", "latitude" : -25.759067, "longitude" : 28.230783 },{ "name" : "Laerskool Anton Van Wouw", "latitude" : -25.775633, "longitude" : 28.232250 },{ "name" : "Laerskool Generaal Jacques Pienaar", "latitude" : -25.726038, "longitude" : 28.196353 },{ "name" : "Bks Customer Care Centre", "latitude" : -25.748680, "longitude" : 28.195940 },{ "name" : "Afrikaanse Hoër Meisieskool", "latitude" : -25.756717, "longitude" : 28.219967 },{ "name" : "Magalies Primary/Secondary", "latitude" : -25.706890, "longitude" : 28.219930 },{ "name" : "Clapham High School", "latitude" : -25.732920, "longitude" : 28.242920 },{ "name" : "Hoër Tegniese Skool John Vorster", "latitude" : -25.697520, "longitude" : 28.237200 },{ "name" : "Laerskool Rietfontein-Noord", "latitude" : -25.699130, "longitude" : 28.227370 },{ "name" : "Laerskool Riviera", "latitude" : -25.731640, "longitude" : 28.206900 },{ "name" : "Laerskool Jopie Fourie", "latitude" : -25.763410, "longitude" : 28.184210 },{ "name" : "Laerskool Oos-Eind", "latitude" : -25.756400, "longitude" : 28.191400 },{ "name" : "Pretoria Primary school", "latitude" : -25.756270, "longitude" : 28.197520 },{ "name" : "Sunnyside Primary School", "latitude" : -25.804567, "longitude" : -25.756650 },{ "name" : "Vhalliespark Primary School", "latitude" : -25.8052298, "longitude" : 28.1519383 },{ "name" : "Hoërskool Hendrik Verwoerd", "latitude" : -25.723500, "longitude" : 28.216950 },{ "name" : "Waterkloof Primary School", "latitude" : -25.776800, "longitude" : 28.240067 },{ "name" : "Laerskool Totiusdal", "latitude" : -25.701440, "longitude" : 28.246240 },{ "name" : "Hoërskool Wonderboom", "latitude" : -25.694483, "longitude" : 28.198750 },{ "name" : "Laerskool Wonderboom-Suid", "latitude" : -25.705467, "longitude" : 28.206617 },{ "name" : "Laerskool Constantiapark", "latitude" : -25.806400, "longitude" : 28.282383 },{ "name" : "American Institution School", "latitude" : -25.801919, "longitude" : 28.325314 },{ "name" : "NDIMA PRIMARY SCHOOL", "latitude" : -25.704630, "longitude" : 28.348700 },{ "name" : "Tshegofatsong", "latitude" : -25.726180, "longitude" : 28.386240 },{ "name" : "Reneilwe Adult school", "latitude" : -25.703250, "longitude" : 28.371450 },{ "name" : "Waterkloof House Prep School", "latitude" : -25.766820, "longitude" : 28.231860 },{ "name" : "Laerskool Lynnwood", "latitude" : -25.760480, "longitude" : 28.268490 },{ "name" : "Hoërskool Menlopark", "latitude" : -25.765433, "longitude" : 28.259683 },{ "name" : "Laerskool Menlopark", "latitude" : -25.767717, "longitude" : 28.254367 },{ "name" : "Hofmeyr park", "latitude" : -25.760960, "longitude" : 28.253980 },{ "name" : "Pretoria High School For Girls", "latitude" : -25.750230, "longitude" : 28.228280 },{ "name" : "Pretoria Secondary School", "latitude" : -25.751290, "longitude" : 28.195780 },{ "name" : "Loreto Convent School", "latitude" : -25.751700, "longitude" : 28.185110 },{ "name" : "Afrikaanse Hoër Seunskool", "latitude" : -25.755493, "longitude" : 28.221478 },{ "name" : "Hoërskool Waterkloof", "latitude" : -25.819730, "longitude" : 28.257290 },{ "name" : "ST ANNES PRIMARY SCHOOL", "latitude" : -25.762840, "longitude" : 28.086370 },{ "name" : "HOLY TRINITY", "latitude" : -25.762400, "longitude" : 28.086467 },{ "name" : "J.J De Jong", "latitude" : -25.763700, "longitude" : 28.078767 },{ "name" : "SAULRIDGE SECONDARY SCHOOL", "latitude" : -25.768067, "longitude" : 28.064717 },{ "name" : "BUD MBELLE PRIMARY SCHOOL", "latitude" : -25.767595, "longitude" : 28.065492 },{ "name" : "HOFMEYR SECONDARY SCHOOL", "latitude" : -25.769460, "longitude" : 28.073010 },{ "name" : "BATHOKWA PRIMARY SCHOOL", "latitude" : -25.766970, "longitude" : 28.054120 },{ "name" : "ESIKHISINI PRIMARY SCHOOL", "latitude" : -25.768428, "longitude" : 28.053112 },{ "name" : "FLAVIUS MAREKA SECONDARY SCHOOL.", "latitude" : -25.769340, "longitude" : 28.055964 },{ "name" : "MAREMATLOU PRIMARY SCHOOL", "latitude" : -25.771250, "longitude" : 28.077240 },{ "name" : "THOHO-YA-NDOU PRIMARY SCHOOL", "latitude" : -25.770867, "longitude" : 28.050467 },{ "name" : "MAKGATHO PRIMARY SCHOOL", "latitude" : -25.774250, "longitude" : 28.062560 },{ "name" : "MABAFENG PRIMARY SCHOOL", "latitude" : -25.777020, "longitude" : 28.065030 },{ "name" : "BANARENG PRIMARY SCHOOL", "latitude" : -25.780270, "longitude" : 28.065860 },{ "name" : "ISAAC MORE PRIMARY SCHOOL", "latitude" : -25.774040, "longitude" : 28.079630 },{ "name" : "PATOGENG PRIMARY SCHOOL", "latitude" : -25.778430, "longitude" : 28.069710 },{ "name" : "SEAPARANKWE PRIMARY SCHOOL", "latitude" : -25.776910, "longitude" : 28.079050 },{ "name" : "MASIZANI PRIMARY SCHOOL", "latitude" : -25.774100, "longitude" : 28.049833 },{ "name" : "EDWARD PHATUDI SECONDARY SCHOOL", "latitude" : -25.777800, "longitude" : 28.050800 },{ "name" : "PHELINDABA SECONDARY SCHOOL", "latitude" : -25.762600, "longitude" : 28.076872 },{ "name" : "MAHLAHLE PRIMARY SCHOOL", "latitude" : -25.779333, "longitude" : 28.053550 },{ "name" : "PHUTHADITSHABA PRIMARY", "latitude" : -25.782267, "longitude" : 28.045983 },{ "name" : "MOTSWEDING PRIMARY SCHOOL", "latitude" : -25.782380, "longitude" : 28.060980 },{ "name" : "Dr Wf Nkomo Secondary S.", "latitude" : -25.777720, "longitude" : 28.073820 },{ "name" : "Makgwaraneng Primary School", "latitude" : -25.781133, "longitude" : 28.064983 },{ "name" : "CAE Golelwe School", "latitude" : -25.772710, "longitude" : 28.070040 },{ "name" : "Zodwa Special School", "latitude" : -25.775170, "longitude" : 28.089510 },{ "name" : "Walter Sizulu Primary", "latitude" : -25.909533, "longitude" : 28.099000 },{ "name" : "Laerskool Bakenkop", "latitude" : -25.869280, "longitude" : 28.153223 },{ "name" : "Olievenhoutbosch Secondary School", "latitude" : -25.920110, "longitude" : 28.086480 },{ "name" : "Olievenhoutbosh Christian School", "latitude" : -25.921600, "longitude" : 28.090470 },{ "name" : "Orefile Primary School", "latitude" : -25.912980, "longitude" : 28.110750 },{ "name" : "Philena Middle School", "latitude" : -25.916850, "longitude" : 28.095517 },{ "name" : "Seshegong Secondary School", "latitude" : -25.909150, "longitude" : 28.086720 },{ "name" : "Wierda Park Primary School", "latitude" : -25.865260, "longitude" : 28.142940 },{ "name" : "Laerskool Hennopspark", "latitude" : -25.851717, "longitude" : 28.169933 },{ "name" : "Springvale Primary School", "latitude" : -25.857567, "longitude" : 28.148567 },{ "name" : "Alpha Centurion Runners", "latitude" : -25.835460, "longitude" : 28.162970 },{ "name" : "Sutherland High School", "latitude" : -25.841720, "longitude" : 28.143460 },{ "name" : "Erasmia Primary School", "latitude" : -25.812995, "longitude" : 28.095693 },{ "name" : "Laerskool Swartkop", "latitude" : -25.819917, "longitude" : 28.146100 },{ "name" : "Valhalla Primary School", "latitude" : -25.814333, "longitude" : 28.143833 },{ "name" : "Irene Middel School", "latitude" : -25.877330, "longitude" : 28.228140 },{ "name" : "Laerskool Fleur School", "latitude" : -25.820383, "longitude" : 28.210150 },{ "name" : "Hoërskool Zwartkop", "latitude" : -25.848930, "longitude" : 28.166290 },{ "name" : "Hoërskool Centurion", "latitude" : -25.830083, "longitude" : 28.199233 },{ "name" : "Laerskool Louis Leipoldt", "latitude" : -25.836250, "longitude" : 28.203967 },{ "name" : "Lyttelton Manor High School", "latitude" : -25.834560, "longitude" : 28.201470 },{ "name" : "Lyttelton Primary School", "latitude" : -25.826578, "longitude" : 28.200049 },{ "name" : "Hoërskool Voortrekkerhoogte", "latitude" : -25.791778, "longitude" : 28.156778 },{ "name" : "KGABO PRIMARY SCHOOL", "latitude" : -25.773170, "longitude" : 28.066730 },{ "name" : "N'WA MHINGA PRIMARY SCHOOL", "latitude" : -25.779070, "longitude" : 28.059980 },{ "name" : "Hoërskool Eldoraigne", "latitude" : -25.841510, "longitude" : 28.148300 },{ "name" : "Andrew Anthony Primary School", "latitude" : -25.784060, "longitude" : 28.101960 },{ "name" : "Hillside Primary School", "latitude" : -25.783520, "longitude" : 28.095420 },{ "name" : "Himalaya Secondary School", "latitude" : -25.781310, "longitude" : 28.100930 },{ "name" : "Jacaranda Primary School", "latitude" : -25.792830, "longitude" : 28.100570 },{ "name" : "Laudium Heights Primary School", "latitude" : -25.783230, "longitude" : 28.097760 },{ "name" : "Laudium Primary School", "latitude" : -25.787143, "longitude" : 28.100669 },{ "name" : "Laudium Secondary School", "latitude" : -25.788333, "longitude" : 28.098717 },{ "name" : "Itereleng School", "latitude" : -25.789270, "longitude" : 28.074990 },{ "name" : "Shree Preoria Hindu Seva Samaj", "latitude" : -25.792020, "longitude" : 28.103180 },{ "name" : "Al-Asr Secondary School", "latitude" : -25.794250, "longitude" : 28.113210 },{ "name" : "Central Islamic School", "latitude" : -25.79007, "longitude" : 28.10129 },{ "name" : "Sunrise School", "latitude" : -25.78909, "longitude" : 28.11035 },{ "name" : "Pretoria Muslem School", "latitude" : -25.788870, "longitude" : 28.106150 },{ "name" : "Laerskool Wierdapark", "latitude" : -25.854583, "longitude" : 28.141150 },{ "name" : "Laerskool Rooihuiskraal", "latitude" : -25.889690, "longitude" : 28.151920 },{ "name" : "Laerskool Doringkloof", "latitude" : -25.860583, "longitude" : 28.203883 },{ "name" : "Epower/ Ratanang Creche", "latitude" : -25.848060, "longitude" : 28.095190 },{ "name" : "Rosina Sedibane Modiba sport school", "latitude" : -25.78214, "longitude" : 28.10926 },{ "name" : "Tshwane Muslim School", "latitude" : -25.795910, "longitude" : 28.095060 },{ "name" : "Rietondale Primary School", "latitude" : -25.731997, "longitude" : 28.219555 },{ "name" : "Sedibeng Primary School", "latitude" : -25.637700, "longitude" : 28.530200 },{ "name" : "Onverwacht Primary School", "latitude" : -25.603800, "longitude" : 28.599030 },{ "name" : "Laerskool Rayton", "latitude" : -25.743670, "longitude" : 28.526620 },{ "name" : "Laerskool Uitsig", "latitude" : -25.898750, "longitude" : 28.131567 },{ "name" : "Hoerskool Cullinan", "latitude" : -25.677680, "longitude" : 28.523930 },{ "name" : "Hoërskool Uitsig", "latitude" : -25.897900, "longitude" : 28.138130 },{ "name" : "Chipa Thabane School", "latitude" : -25.641510, "longitude" : 28.528840 },{ "name" : "Chokoe Primary School", "latitude" : -25.647350, "longitude" : 28.529690 },{ "name" : "Hoërskool F H Odendaal", "latitude" : -25.415483, "longitude" : 28.17931 },{ "name" : "Sonitus Skool", "latitude" : -25.700490, "longitude" : 28.291240 },{ "name" : "Eersterust Sekondêr", "latitude" : -25.712833, "longitude" : 28.311167 },{ "name" : "Fred Magardie Primary School", "latitude" : -25.712970, "longitude" : 28.317630 },{ "name" : "Norridge Park Primary", "latitude" : -25.706630, "longitude" : 28.314750 },{ "name" : "P S Fourie Primary", "latitude" : -25.714683, "longitude" : 28.312100 },{ "name" : "Prosperitus Sekondêr", "latitude" : -25.701640, "longitude" : 28.303370 },{ "name" : "Curro College Hazeldean", "latitude" : -25.775789, "longitude" : 28.378850 },{ "name" : "Laerskool Derdepoort", "latitude" : -25.702400, "longitude" : 28.287700 },{ "name" : "La Montagne Primary School", "latitude" : -25.745252, "longitude" : 28.323189 },{ "name" : "SHIRINDA PRIMARY SCHOOL", "latitude" : -25.705129, "longitude" : 28.330683 },{ "name" : "ORA ET LABORA PRIMARY SCHOOL", "latitude" : -25.712830, "longitude" : 28.327680 },{ "name" : "EMTHUNZINI PRIMARY SCHOOL", "latitude" : -25.706020, "longitude" : 28.336420 },{ "name" : "UMTHOMBO PRIMARY SCHOOL", "latitude" : -25.711520, "longitude" : 28.335180 },{ "name" : "JAFTA MAHLANGU SECONDARY SCHOOL", "latitude" : -25.703680, "longitude" : 28.339560 },{ "name" : "BOHLABATSATSI PRIMARY SCHOOL", "latitude" : -25.712810, "longitude" : 28.340270 },{ "name" : "F.F. RIBIERO PRIMARY SCHOOL (EX NTSHABOHLOKO):1997", "latitude" : -25.714390, "longitude" : 28.343930 },{ "name" : "MORAKOMA PRIMARY SCHOOL", "latitude" : -25.710970, "longitude" : 28.343970 },{ "name" : "MORETELE PRIMARY SCHOOL", "latitude" : -25.713460, "longitude" : 28.358530 },{ "name" : "PHELADI-NAKENE PRIMARY SCHOOL", "latitude" : -25.711760, "longitude" : 28.355390 },{ "name" : "VUKANI MAWETHU SECONDARY SCHOOL", "latitude" : -25.709740, "longitude" : 28.362850 },{ "name" : "MAMELODI SECONDARY SCHOOL", "latitude" : -25.710070, "longitude" : 28.363940 },{ "name" : "MODIRI TECHNICAL SCHOOL", "latitude" : -25.706947, "longitude" : 28.365930 },{ "name" : "REFENTSE PRIMARY SCHOOL", "latitude" : -25.705800, "longitude" : 28.360270 },{ "name" : "VLAKFONTEIN SECONDARY SCHOOL", "latitude" : -25.706050, "longitude" : 28.366210 },{ "name" : "EZAZI PRIMARY SCHOOL", "latitude" : -25.714430, "longitude" : 28.349854 },{ "name" : "TSHIMOLLO PRIMARY SCHOOL", "latitude" : -25.715875, "longitude" : 28.3485339 },{ "name" : "J KEKANA SECONDARY SCHOOL", "latitude" : -25.708133, "longitude" : 28.352417 },{ "name" : "Agnes Chidi Primary School", "latitude" : -25.715750, "longitude" : 28.351740 },{ "name" : "Dr Im Monare Primary School", "latitude" : -25.711510, "longitude" : 28.361540 },{ "name" : "FUNANANI CHRISTIAN SCHOOL", "latitude" : -25.704100, "longitude" : 28.363590 },{ "name" : "Laerskool Meyerspark", "latitude" : -25.740060, "longitude" : 28.315790 },{ "name" : "Kutumela-Molefi Intm. Farm School", "latitude" : -25.754100, "longitude" : 28.419233 },{ "name" : "Bona Lesedi Middle School", "latitude" : -25.702750, "longitude" : 28.412240 },{ "name" : "NELLMAPIUS PRIMARY SCHOOL", "latitude" : -25.737080, "longitude" : 28.350200 },{ "name" : "JAN KOTLOLO PRIMARY SCHOOL", "latitude" : -25.730260, "longitude" : 28.361990 },{ "name" : "LOMPEC INDEPENDENT PRIMARY AND SECONDARYSCHOOL", "latitude" : -25.705510, "longitude" : 28.375786 },{ "name" : "MONONONG PRIMARY SCHOOL", "latitude" : -25.703720, "longitude" : 28.380280 },{ "name" : "SINDAWONYE PRIMARY SCHOOL", "latitude" : -25.710330, "longitude" : 28.369950 },{ "name" : "MVELEDZO PRIMARY SCHOOL", "latitude" : -25.716450, "longitude" : 28.369090 },{ "name" : "TLAKUKANI PRIMARY SCHOOL", "latitude" : -25.715320, "longitude" : 28.368540 },{ "name" : "PULA-DIFATE PRIMARY SCHOOL", "latitude" : -25.713140, "longitude" : 28.376370 },{ "name" : "PHATENG SECONDARY SCHOOL", "latitude" : -25.721200, "longitude" : 28.371580 },{ "name" : "MOTHEO PRIMARY SCHOOL", "latitude" : -25.705190, "longitude" : 28.381820 },{ "name" : "VUKAUZENZELE PRIMARY SCHOOL", "latitude" : -25.739410, "longitude" : 28.374050 },{ "name" : "BOIKGANTSHO PRIMARY SCHOOL", "latitude" : -25.718815, "longitude" : 28.3849445 },{ "name" : "RIBANE-LAKA SECONDARY SCHOOL", "latitude" : -25.717320, "longitude" : 28.384880 },{ "name" : "SOLOMON MAHLANGO FREEDOM SCHOOL (EX IZIKHULU):1997", "latitude" : -25.719760, "longitude" : 28.384590 },{ "name" : "N'WA-VANGANI PRIMARY SCHOOL", "latitude" : -25.723510, "longitude" : 28.386900 },{ "name" : "UOANE PRIMARY SCHOOL", "latitude" : -25.709550, "longitude" : 28.386630 },{ "name" : "SIKHANYISELE PRIMARY SCHOOL", "latitude" : -25.714480, "longitude" : 28.387251 },{ "name" : "BALEBOGENG PRIMARY SCHOOL", "latitude" : -25.706843, "longitude" : 28 },{ "name" : "MOGALE PRIMARY SCHOOL", "latitude" : -25.721490, "longitude" : 28.392823 },{ "name" : "LEHLABILE SECONDARY SCHOOL", "latitude" : -25.712780, "longitude" : 28.389800 },{ "name" : "GATANG SECONDARY SCHOOL", "latitude" : -25.721840, "longitude" : 28.395110 },{ "name" : "BAJABULILE PRIMARY SCHOOL", "latitude" : -25.714970, "longitude" : 28.392840 },{ "name" : "RETHAKGETSE PRIMARY SCHOOL", "latitude" : -25.706470, "longitude" : 28.389870 },{ "name" : "STANZA BOPAPE SECONDARY SCHOOL", "latitude" : -25.702833, "longitude" : 28.389017 },{ "name" : "BULA-DIKGORO PRIMARY SCHOOL", "latitude" : -25.704700, "longitude" : 28.398750 },{ "name" : "PFUNZO NDI TSHEDZA", "latitude" : -25.721720, "longitude" : 28.404710 },{ "name" : "NELLMAPIUS SECONDARY SCHOOL", "latitude" : -25.738840, "longitude" : 28.351370 },{ "name" : "Emasangwene Primary School", "latitude" : -25.707910, "longitude" : 28.410300 },{ "name" : "Khuthalani Primary School", "latitude" : -25.713032, "longitude" : 28.386976 },{ "name" : "Legora Primary School", "latitude" : -25.727767, "longitude" : 28.420317 },{ "name" : "Mahlasedi - Masana Primary School", "latitude" : -25.716300, "longitude" : 28.418950 },{ "name" : "Meetse-A-Bophelo School", "latitude" : -25.721810, "longitude" : 28.418740 },{ "name" : "Ramahlale Primary School", "latitude" : -25.710929, "longitude" : 28.404202 },{ "name" : "Zakhele Primary School", "latitude" : -25.706450, "longitude" : 28.379483 },{ "name" : "Sipho Komane Secondary School", "latitude" : -25.744240, "longitude" : 28.355340 },{ "name" : "Tsako Thabo Secondary School", "latitude" : -25.709317, "longitude" : 28.371600 },{ "name" : "BOPHELONG COMMUNITY INDEPENDENT SCHOOL", "latitude" : -25.716730, "longitude" : 28.378370 },{ "name" : "Rephafogile Secondary", "latitude" : -25.720310, "longitude" : 28.433570 },{ "name" : "Koos Matli primary school", "latitude" : -25.707960, "longitude" : 28.390670 },{ "name" : "Nellmapius Lethabong Secondary School", "latitude" : -25.733186, "longitude" : 28.384556 },{ "name" : "Nellmapius Primary School", "latitude" : -25.731910, "longitude" : 28.376690 },{ "name" : "Mahube Valey Secondary School", "latitude" : -25.700370, "longitude" : 28.412210 },{ "name" : "Sediba sa Thuto", "latitude" : -25.727467, "longitude" : 28.433950 },{ "name" : "Impendulo Primary", "latitude" : -25.723160, "longitude" : 28.438510 },{ "name" : "Mahlenga Secondary School", "latitude" : -25.601300, "longitude" : 28.894660 },{ "name" : "Mkhambi Primary School", "latitude" : -25.606170, "longitude" : 28.879310 },{ "name" : "Sikhulisile Primary School", "latitude" : -25.663260, "longitude" : 28.737470 },{ "name" : "Ekangala Comprehensive High School", "latitude" : -25.697510, "longitude" : 28.746790 },{ "name" : "Hlabelela Primary School", "latitude" : -25.695340, "longitude" : 28.751640 },{ "name" : "Hlolisisa Primary", "latitude" : -25.688360, "longitude" : 28.745600 },{ "name" : "Rethabisang Primarty School", "latitude" : -25.724750, "longitude" : 28.715090 },{ "name" : "Sihluziwe Primary School", "latitude" : -25.657510, "longitude" : 28.727130 },{ "name" : "Zivuseni Combined School", "latitude" : -25.676310, "longitude" : 28.725390 },{ "name" : "Mandlomsobo Combined School", "latitude" : -25.668130, "longitude" : 28.725750 },{ "name" : "Jabulani Private Primary", "latitude" : -25.685140, "longitude" : 28.712170 },{ "name" : "Kgoro Primary School", "latitude" : -25.787640, "longitude" : 28.719680 },{ "name" : "Mshuluzane Mayisela Primary School", "latitude" : -25.774570, "longitude" : 28.718820 },{ "name" : "Zithobeni Secondary School", "latitude" : -25.776650, "longitude" : 28.729290 },{ "name" : "Wozanibone Secondary", "latitude" : -25.905130, "longitude" : 28.530580 },{ "name" : "Strauss Secondary School", "latitude" : -25.678026, "longitude" : 28.737975 },{ "name" : "Bronkhorst spruit Prim School", "latitude" : -25.809040, "longitude" : 28.710130 },{ "name" : "Cultura High School", "latitude" : -25.824870, "longitude" : 28.738840 },{ "name" : "Hoerskool Erasmus", "latitude" : -25.812870, "longitude" : 28.733960 },{ "name" : "Soshanguve College", "latitude" : -25.538857, "longitude" : 28.098797 },{ "name" : "Soshanguve College", "latitude" : -25.541160, "longitude" : 28.097960 },{ "name" : "Soshanguve College", "latitude" : -25.543240, "longitude" : 28.097230 },{ "name" : "Soshanguve College", "latitude" : -25.545338, "longitude" : 28.096425 },{ "name" : "Soshanguve College", "latitude" : -25.546218, "longitude" : 28.095748 },{ "name" : "Tshwane university of Technology", "latitude" : -25.723420, "longitude" : 28.180740 },{ "name" : "Ga-Rankuwa TUT", "latitude" : -25.618320, "longitude" : 28.002670 },{ "name" : "Prestige College", "latitude" : -25.430440, "longitude" : 28.273010 },{ "name" : "Temba Technical College", "latitude" : -25.389820, "longitude" : 28.258040 },{ "name" : "University of Pretoria", "latitude" : -25.405870, "longitude" : 28.263500 },{ "name" : "TUT Weir Street", "latitude" : -25.726610, "longitude" : 28.162470 },{ "name" : "BOKGONI TECHNICAL SECONDARY SCHOOL", "latitude" : -25.764417, "longitude" : 28.085367 },{ "name" : "Tswane South College", "latitude" : -25.767240, "longitude" : 28.089800 },{ "name" : "Zandfontein Traffic Collage", "latitude" : -25.713780, "longitude" : 28.076340 },{ "name" : "Corner Stone College", "latitude" : -25.728037, "longitude" : 28.298922 },{ "name" : "Technicon PTA West", "latitude" : -25.732680, "longitude" : 28.158470 },{ "name" : "Tswane West College", "latitude" : -25.762040, "longitude" : 28.135810 },{ "name" : "Pretoria Noord Tutela Campus", "latitude" : -25.681340, "longitude" : 28.163130 },{ "name" : "Star College Equestria", "latitude" : -25.769028, "longitude" : 28.333639 },{ "name" : "Varsity college", "latitude" : -25.775580, "longitude" : 28.282500 },{ "name" : "Magnolia Dell", "latitude" : -25.762362, "longitude" : 28.220431 },{ "name" : "Crawford College", "latitude" : -25.765722, "longitude" : 28.215417 },{ "name" : "Christian Brothers College", "latitude" : -25.737090, "longitude" : 28.270190 },{ "name" : "SG Lourens Nursing College", "latitude" : -25.737403, "longitude" : 28.198478 },{ "name" : "Tshwane north college", "latitude" : -25.748420, "longitude" : 28.181120 },{ "name" : "Lebone college", "latitude" : -25.739875, "longitude" : 28.202943 },{ "name" : "Unisa Sunnyside Campus 2", "latitude" : -25.757770, "longitude" : 28.198310 },{ "name" : "Tshwane North College 1", "latitude" : -25.745659, "longitude" : 28.198113 },{ "name" : "Tshwane North College 2", "latitude" : -25.745659, "longitude" : 28.198113 },{ "name" : "Tshwane North College 3", "latitude" : -25.745659, "longitude" : 28.198113 },{ "name" : "Tshwane North College 4", "latitude" : -25.745659, "longitude" : 28.198113 },{ "name" : "Tshwane North Campus CBD 1", "latitude" : -25.540645, "longitude" : 28.096905 },{ "name" : "Tshwane North Campus CBD 2", "latitude" : -25.540645, "longitude" : 28.096905 },{ "name" : "Tshwane North Campus CBD 3", "latitude" : -25.540645, "longitude" : 28.096905 },{ "name" : "Tshwane North Campus CBD 4", "latitude" : -25.540645, "longitude" : 28.096905 },{ "name" : "Tshwane North Campus CBD 5", "latitude" : -25.540645, "longitude" : 28.096905 },{ "name" : "Sesegong Metro Police Training College", "latitude" : -25.775800, "longitude" : 28.086360 },{ "name" : "University of Pretoria TUT", "latitude" : -25.702287, "longitude" : 28.361117 },{ "name" : "Metro Police Training College", "latitude" : -25.704280, "longitude" : 28.365390 },{ "name" : "Makgoba Sebothoma Community Hall", "latitude" : -25.377440, "longitude" : 28.246150 },{ "name" : "Odirile Centre", "latitude" : -25.384030, "longitude" : 28.244530 },{ "name" : "Suurman Community Hall", "latitude" : -25.382090, "longitude" : 28.220310 },{ "name" : "Olievenhout Bosch Disability Centre", "latitude" : -25.915030, "longitude" : 28.092200 },{ "name" : "Thaba Tshwane Islamic Centre Trust", "latitude" : -25.805970, "longitude" : 28.140870 },{ "name" : "Centurion Cc", "latitude" : -25.835267, "longitude" : 28.196417 },{ "name" : "Accommodation Hall TLMA", "latitude" : -25.739585, "longitude" : 28.164360 },{ "name" : "Wi-Fi Tv 2 (Apollo Buildings)", "latitude" : -25.747470, "longitude" : 28.169747 },{ "name" : "Jacaranda kinder huis", "latitude" : -25.694760, "longitude" : 28.290820 },{ "name" : "Stanza Bopape Community Health Centre", "latitude" : -25.705290, "longitude" : 28.394680 },{ "name" : "Eersterust Welfare Organisation", "latitude" : -25.703730, "longitude" : 28.311090 },{ "name" : "Zithobeni Municipal Key Site", "latitude" : -25.783780, "longitude" : 28.719840 },{ "name" : "Ekangala Community Hall", "latitude" : -25.697636, "longitude" : 28.751986 },{ "name" : "Ekangala Sec_F Makhakane Community Hall", "latitude" : -25.697750, "longitude" : 28.752110 },{ "name" : "Rethabiseng Municipal Key Site", "latitude" : -25.718660, "longitude" : 28.712340 },{ "name" : "Sinoville Tennis Club", "latitude" : -25.673800, "longitude" : 28.219067 },{ "name" : "Villeria Tennis Club", "latitude" : -25.722139, "longitude" : 28.219389 },{ "name" : "Hammanskraal Sport Centre", "latitude" : -25.402130, "longitude" : 28.293290 },{ "name" : "Temba staduim", "latitude" : -25.377790, "longitude" : 28.248610 },{ "name" : "Temba Swimming Pool", "latitude" : -25.378352, "longitude" : 28.245667 },{ "name" : "Hermanstad soccer club", "latitude" : -25.720080, "longitude" : 28.159750 },{ "name" : "Garsfontein Tennis and Skate Park", "latitude" : -25.788910, "longitude" : 28.285950 },{ "name" : "Belgrave club", "latitude" : -25.751870, "longitude" : 28.238060 },{ "name" : "Murray Field Tennis Courts", "latitude" : -25.749200, "longitude" : 28.298640 },{ "name" : "Pilditch Stadium", "latitude" : -25.751420, "longitude" : 28.163820 },{ "name" : "Annlin Tennis Club", "latitude" : -25.681639, "longitude" : 28.197444 },{ "name" : "Rolbal Club", "latitude" : -25.713610, "longitude" : 28.234680 },{ "name" : "Villieria sport club", "latitude" : -25.722190, "longitude" : 28.237800 },{ "name" : "Zambesi tennis Club", "latitude" : -25.687780, "longitude" : 28.258610 },{ "name" : "Pierre Van Reyneveldt Teninis Courts", "latitude" : -25.842583, "longitude" : 28.243817 },{ "name" : "Monument Park Tennis Club", "latitude" : -25.803780, "longitude" : 28.234520 },{ "name" : "RIF Tennis Club", "latitude" : -25.812111, "longitude" : 28.242111 },{ "name" : "Gezina Netbal Club & Korbal Park", "latitude" : -25.716860, "longitude" : 28.206990 },{ "name" : "Silver Park Tennis", "latitude" : -25.761590, "longitude" : 28.318920 },{ "name" : "Brooklyn Bowling Club", "latitude" : -25.764639, "longitude" : 28.235000 },{ "name" : "Lynnwood Tennis Club", "latitude" : -25.759167, "longitude" : 28.260861 },{ "name" : "Brooklyn Union Tennis Club", "latitude" : -25.762780, "longitude" : 28.239860 },{ "name" : "Saulsville Sports Arena", "latitude" : -25.769150, "longitude" : 28.063040 },{ "name" : "Atteridgeville Stadium", "latitude" : -25.775830, "longitude" : 28.072450 },{ "name" : "Centurion Wreseling Club", "latitude" : -25.848610, "longitude" : 28.154070 },{ "name" : "Eldoraigne Tennis Club", "latitude" : -25.849058, "longitude" : 28.153719 },{ "name" : "Eldoraigne Matsport Centre", "latitude" : -25.848830, "longitude" : 28.155500 },{ "name" : "Valhalla Tennis Club", "latitude" : -25.812350, "longitude" : 28.152500 },{ "name" : "Weirda Park Tennis Club", "latitude" : -25.856944, "longitude" : 28.145361 },{ "name" : "Centurion Jukskei Club", "latitude" : -25.855770, "longitude" : 28.193230 },{ "name" : "Centurion Racing Pigeon Club", "latitude" : -25.848143, "longitude" : 28.140475 },{ "name" : "Clubview Tennis", "latitude" : -25.834980, "longitude" : 28.175380 },{ "name" : "Centurion Squash Club", "latitude" : -25.835514, "longitude" : 28.175017 },{ "name" : "Centurion Rugby Club", "latitude" : -25.857290, "longitude" : 28.194950 },{ "name" : "Lyttelton Library 259 West Ave", "latitude" : -25.851520, "longitude" : 28.188790 },{ "name" : "Cest La Via Play Park", "latitude" : -25.842884, "longitude" : 28.175897 },{ "name" : "Doringkloof Tennis Club", "latitude" : -25.853280, "longitude" : 28.206280 },{ "name" : "Centurion Blues", "latitude" : -25.820528, "longitude" : 28.208111 },{ "name" : "Centurion Bouling Club", "latitude" : -25.825600, "longitude" : 28.208600 },{ "name" : "Centurion Gymnastics Club", "latitude" : -25.858470, "longitude" : 28.196230 },{ "name" : "Centurion Netball Club", "latitude" : -25.826211, "longitude" : 28.207774 },{ "name" : "Centurion Racing Yacht Club", "latitude" : -25.851933, "longitude" : 28.184669 },{ "name" : "Zwartkop Driving Range", "latitude" : -25.823887, "longitude" : 28.165400 },{ "name" : "Eagles Karate Club", "latitude" : -25.854270, "longitude" : 28.165590 },{ "name" : "Mets Baseball Club", "latitude" : -25.806500, "longitude" : 28.150067 },{ "name" : "Laudium Bowling Club", "latitude" : -25.791620, "longitude" : 28.105410 },{ "name" : "Laudium Cricket club", "latitude" : -25.789760, "longitude" : 28.095560 },{ "name" : "Laudium Football Association", "latitude" : -25.788770, "longitude" : 28.093730 },{ "name" : "Laudium Tennis Club", "latitude" : -25.788814, "longitude" : 28.100646 },{ "name" : "Eersterust cricket stadium", "latitude" : -25.701090, "longitude" : 28.315660 },{ "name" : "Eersterus sport staduim", "latitude" : -25.714860, "longitude" : 28.305270 },{ "name" : "Mamelodi West Cricket Club", "latitude" : -25.706850, "longitude" : 28.346080 },{ "name" : "Nelmapius Swimming Pool", "latitude" : -25.745340, "longitude" : 28.357420 },{ "name" : "Mamelodi softball club", "latitude" : -25.709833, "longitude" : 28.377419 },{ "name" : "Mamelodi Cricket Club Ext5", "latitude" : -25.708550, "longitude" : 28.401860 },{ "name" : "Bronkhorstpruit Stadium", "latitude" : -25.808206, "longitude" : 28.731536 },{ "name" : "Zithobeni Sport Stadium", "latitude" : -25.783240, "longitude" : 28.719810 },{ "name" : "Sinoville Metro Police", "latitude" : -25.678290, "longitude" : 28.217440 },{ "name" : "Hammanskraal Metro Police", "latitude" : -25.403669, "longitude" : 28.287825 },{ "name" : "Madiba 1 Metro Police (R3s2)", "latitude" : -25.74689, "longitude" : 28.17733 },{ "name" : "CBD Metro Police", "latitude" : -25.739850, "longitude" : 28.183780 },{ "name" : "Metro Police Office-War Room", "latitude" : -25.749160, "longitude" : 28.172120 },{ "name" : "Metro Police (Phillip Nel R3S1)", "latitude" : -25.740780, "longitude" : 28.137190 },{ "name" : "Centurion Metropolatan police station", "latitude" : -25.826930, "longitude" : 28.205140 },{ "name" : "Centurion Licensing Service", "latitude" : -25.890997, "longitude" : 28.182576 },{ "name" : "Bronkhostspruit Metro Police", "latitude" : -25.810460, "longitude" : 28.743760 },{ "name" : "Mabopane Metro Police", "latitude" : -25.508070, "longitude" : 28.041470 },{ "name" : "Mabopane SAPS", "latitude" : -25.511610, "longitude" : 28.057240 },{ "name" : "Mabopane Skills Centre", "latitude" : -25.502750, "longitude" : 28.048680 },{ "name" : "ODI district hospital", "latitude" : -25.595460, "longitude" : 28.108520 },{ "name" : "Giant Stadium", "latitude" : -25.518400, "longitude" : 28.087900 },{ "name" : "Sosh-Drive inn P1", "latitude" : -25.522890, "longitude" : 28.100510 },{ "name" : "Sosh-Drive inn P2", "latitude" : -25.523360, "longitude" : 28.099710 },{ "name" : "Mabophane unit D", "latitude" : -25.521520, "longitude" : 28.070260 },{ "name" : "Retlotleng Womens Organisation", "latitude" : -25.488290, "longitude" : 28.053270 },{ "name" : "Klipkruis FOUNTAINS Resort", "latitude" : -25.581940, "longitude" : 28.092740 },{ "name" : "Ground supermarket", "latitude" : -25.599560, "longitude" : 28.090460 },{ "name" : "Ronny's", "latitude" : -25.593290, "longitude" : 28.064170 },{ "name" : "Grown Supermarket", "latitude" : -25.585600, "longitude" : 28.049690 },{ "name" : "Ekasi Labs", "latitude" : -25.604870, "longitude" : 28.008600 },{ "name" : "Ga-Rankuwa Sport Stadium", "latitude" : -25.592030, "longitude" : 27.994290 },{ "name" : "Ga-Rankuwa Community Hall", "latitude" : -25.616340, "longitude" : 27.986650 },{ "name" : "Falala Gymnasium", "latitude" : -25.511010, "longitude" : 28.106270 },{ "name" : "Itsoseng phase 6", "latitude" : -25.544310, "longitude" : 28.062160 },{ "name" : "Maunde City", "latitude" : -25.467510, "longitude" : 28.071060 },{ "name" : "Mehlareng Inn", "latitude" : -25.535100, "longitude" : 28.083350 },{ "name" : "Camera Pole 29- C/O Prospect & Hilda", "latitude" : -25.752212, "longitude" : 28.235443 },{ "name" : "Kirkney Church", "latitude" : -25.719980, "longitude" : 28.099960 },{ "name" : "Metro Police Winternest", "latitude" : -25.648170, "longitude" : 28.128900 },{ "name" : "Enoch Sontonga stasion", "latitude" : -25.727240, "longitude" : 28.187540 },{ "name" : "Deetlefs ave", "latitude" : -25.637960, "longitude" : 28.090360 },{ "name" : "Holy Cross Home", "latitude" : -25.702560, "longitude" : 28.142570 },{ "name" : "SEETSA/SA/KWEDI", "latitude" : -25.467450, "longitude" : 28.118570 },{ "name" : "Sosh Bakery", "latitude" : -25.448450, "longitude" : 28.112733 },{ "name" : "Doornpoort Airport Satellite", "latitude" : -25.648321, "longitude" : 28.236369 },{ "name" : "khomanane burial home", "latitude" : -25.364820, "longitude" : 28.308220 },{ "name" : "Camera Pole 215 - C/O Dely & Lois", "latitude" : -25.795601, "longitude" : 28.269590 },{ "name" : "Camera Pole 64 - C/O Mogul & 7th", "latitude" : -25.739180, "longitude" : 28.176704 },{ "name" : "Camera Pole 65 C/O Bloed & 7th", "latitude" : -25.741869, "longitude" : 28.176960 },{ "name" : "Camera Pole 45- C/O Spuy & Verdoorn", "latitude" : -25.754701, "longitude" : 28.215143 },{ "name" : "Camera Pole 51- C/O Robert Sobukwe & Celliers", "latitude" : -25.752753, "longitude" : 28.206373 },{ "name" : "Camera Pole 53 - C/O Mogul & 7th", "latitude" : -25.751577, "longitude" : 28.203667 },{ "name" : "Camera Pole 230 - C/O Middel & Dey", "latitude" : -25.771660, "longitude" : 28.230618 },{ "name" : "Camera Pole 9 C/O Andies and Church", "latitude" : -25.746340, "longitude" : 28.190510 },{ "name" : "Camera Pole 10 C/O Andries & Pretorius", "latitude" : -25.747662, "longitude" : 28.190748 },{ "name" : "Camera Pole 20-C/O Struben & du Toit", "latitude" : -25.74126, "longitude" : 28.19737 },{ "name" : "Camera Pole 23- Sammy Marks Square", "latitude" : -25.746226, "longitude" : 28.193912 },{ "name" : "Camera Pole 24- C/O Church & Central", "latitude" : -25.746172, "longitude" : 28.191975 },{ "name" : "Camera Pole 62 - C/O Boom & Andries", "latitude" : -25.739002, "longitude" : 28.189756 },{ "name" : "Camera Pole 71 C/O Bosman & Scheiding", "latitude" : -25.75691, "longitude" : 28.18639 },{ "name" : "Camera Pole 72 C/O Paul Kruger & Scheiding", "latitude" : -25.756903, "longitude" : 28.188991 },{ "name" : "Camera Pole 74 C/O Park & Leyds", "latitude" : -25.74916, "longitude" : 28.20930 },{ "name" : "Camera Pole 75 C/O Bourhe & Walton Jameson", "latitude" : -25.751982, "longitude" : 28.210595 },{ "name" : "Camera Pole 84 C/O Francis Baard & Eastwood", "latitude" : -25.74691, "longitude" : 28.22243 },{ "name" : "Camera Pole 93 C/O Justice Mahomed & Leyds", "latitude" : -25.758641, "longitude" : 28.205138 },{ "name" : "Camera Pole 94 C/O Bloed & Sisulu", "latitude" : -25.742473, "longitude" : 28.182921 },{ "name" : "Camera Pole 104 C/O Boom & Schubart", "latitude" : -25.73943, "longitude" : 28.18282 },{ "name" : "Camera Pole 105 C/O Struben & Potgieter", "latitude" : -25.74240, "longitude" : 28.18026 },{ "name" : "Camera Pole 111 C/O Nana Sita & Prince's Park", "latitude" : -25.751070, "longitude" : 28.178737 },{ "name" : "Camera Pole 130 C/O Rissik & Steve Biko", "latitude" : -25.75628, "longitude" : 28.20111 },{ "name" : "Camera Pole 152 C/O Johannes Ramokgoase & Mandela", "latitude" : -25.742634, "longitude" : 28.199582 },{ "name" : "Camera Pole 155 C/O Andries & Minnaar", "latitude" : -25.753614, "longitude" : 28.191211 },{ "name" : "Camera Pole 164 - C/O Paul Kruger & Vermeulen", "latitude" : -25.745143, "longitude" : 28.187898 },{ "name" : "C/O Kotze Street and Meintjies Street", "latitude" : -25.751991, "longitude" : 28.200471 },{ "name" : "C/O Kotze Street and Bourke Street", "latitude" : -25.755563, "longitude" : 28.208523 },{ "name" : "Prospectus Novus", "latitude" : -25.706737, "longitude" : 28.185737 },{ "name" : "IDC", "latitude" : -25.744510, "longitude" : 28.243540 },{ "name" : "Pretoria Art Museum", "latitude" : -25.749550, "longitude" : 28.213320 },{ "name" : "Pretoria Art Museum", "latitude" : -25.747930, "longitude" : 28.213850 },{ "name" : "Tjaart Van Vuuren", "latitude" : -25.705530, "longitude" : 28.236120 },{ "name" : "Tshegofatsong", "latitude" : -25.726180, "longitude" : 28.386240 },{ "name" : "Fizz Box-1", "latitude" : -25.746450, "longitude" : 28.188830 },{ "name" : "Fizz Box-2", "latitude" : -25.745840, "longitude" : 28.187940 },{ "name" : "Fizz Box-3", "latitude" : -25.747040, "longitude" : 28.188300 },{ "name" : "Fizz Box-4", "latitude" : -25.746440, "longitude" : 28.187310 },{ "name" : "Union buildings 3", "latitude" : -25.443848, "longitude" : 28.123880 },{ "name" : "Union buildings 6", "latitude" : -25.444101, "longitude" : 28.124006 },{ "name" : "Morotolola Café", "latitude" : -25.744040, "longitude" : 28.068340 },{ "name" : "Old Fire Station", "latitude" : -25.753570, "longitude" : 28.186020 },{ "name" : "Monument Poort", "latitude" : -25.667240, "longitude" : 28.173130 },{ "name" : "DERDEPOORT Recreational", "latitude" : -25.691990, "longitude" : 28.290070 },{ "name" : "Collin's Mini Market", "latitude" : -25.782250, "longitude" : 28.053560 },{ "name" : "Waboom", "latitude" : -25.764100, "longitude" : 28.110460 },{ "name" : "Wonderboom Airport", "latitude" : -25.658210, "longitude" : 28.214610 },{ "name" : "Wonderboom Nature reserve", "latitude" : -25.686700, "longitude" : 28.190080 },{ "name" : "Fountains 1", "latitude" : -25.779020, "longitude" : 28.194930 },{ "name" : "Fountains 2", "latitude" : -25.780440, "longitude" : 28.195160 },{ "name" : "Fountains 3", "latitude" : -25.781690, "longitude" : 28.194930 },{ "name" : "Fountains 4", "latitude" : -25.783610, "longitude" : 28.195340 },{ "name" : "Fountains 5", "latitude" : -25.785120, "longitude" : 28.195750 },{ "name" : "Fountains 6", "latitude" : -25.788610, "longitude" : 28.199340 },{ "name" : "Fountains 7", "latitude" : -25.788140, "longitude" : 28.199250 },{ "name" : "Ga Mothakga Resort", "latitude" : -25.762890, "longitude" : 28.069060 },{ "name" : "BM supermarket", "latitude" : -25.920460, "longitude" : 28.102470 },{ "name" : "Steve Tshwete", "latitude" : -25.908283, "longitude" : 28.094217 },{ "name" : "Oliven Steel Supplies", "latitude" : -25.898460, "longitude" : 28.088200 },{ "name" : "Valhalla Dodgers", "latitude" : -25.808417, "longitude" : 28.147833 },{ "name" : "Angvivk rd bus stop", "latitude" : -25.797930, "longitude" : 28.152650 },{ "name" : "Camera Pole 175 C/O Protea & Lupin (Dooringkloof Mall)", "latitude" : -25.855948, "longitude" : 28.217480 },{ "name" : "Station Road Junction", "latitude" : -25.835620, "longitude" : 28.209950 },{ "name" : "Itereleng Taxi Rank", "latitude" : -25.787050, "longitude" : 28.078830 },{ "name" : "Natimba Drop Off Centre", "latitude" : -25.712510, "longitude" : 28.401790 },{ "name" : "Stanza Bopape IT Centre", "latitude" : -25.713450, "longitude" : 28.401160 },{ "name" : "Denneboom Taxi Rank", "latitude" : -25.718630, "longitude" : 28.338460 },{ "name" : "Mamelodi CarWash", "latitude" : -25.717440, "longitude" : 28.355210 },{ "name" : "Nantes Primer", "latitude" : -25.711980, "longitude" : 28.321550 },{ "name" : "Petroleum Depot", "latitude" : -25.723621, "longitude" : 28.309216 },{ "name" : "Metro Police Regional office", "latitude" : -25.713770, "longitude" : 28.328600 },{ "name" : "Tjos Supermarket", "latitude" : -25.721570, "longitude" : 28.408650 },{ "name" : "Sensitive Tuck Shop", "latitude" : -25.731050, "longitude" : 28.444500 },{ "name" : "Save More Supermarket", "latitude" : -25.736340, "longitude" : 28.390320 },{ "name" : "Die Draai X 1", "latitude" : -25.797800, "longitude" : 28.730960 },{ "name" : "Die Draai X 2", "latitude" : -25.797920, "longitude" : 28.731590 },{ "name" : "Die Draai X 3", "latitude" : -25.798003, "longitude" : 28.732297 },{ "name" : "Die Draai X 4", "latitude" : -25.798470, "longitude" : 28.733120 },{ "name" : "Die Draai X 5", "latitude" : -25.797814, "longitude" : 28.731022 },{ "name" : "Muniforum Bld", "latitude" : -25.809590, "longitude" : 28.742819 },{ "name" : "Ekandasria refactory minerals", "latitude" : -25.682018, "longitude" : 28.697522 },{ "name" : "Hosana Shop", "latitude" : -25.791300, "longitude" : 28.728690 }
]